utility_id,utility_name,plant_code,plant_name,state,county,generator_id,status,technology,prime_mover,sector_name,sector,nameplate_capacity_mw,summer_capacity_mw,winter_capacity_mw,operating_month,operating_year,number_of_turbines,predominant_turbine_manufacturer,predominant_turbine_model_number,design_wind_speed_mph,wind_quality_class,turbine_hub_height_feet,energy_type,year,street_address,city,zip,latitude,longitude
13642,Nome Joint Utility Systems,90,Snake River,AK,Nome,ENT,OA,Onshore Wind Turbine,WT,Electric Utility,1,0.8,0.8,0.8,1,2015,15,Entegrity Wind Systems,EW50,20,2,102,wind,2016,1226 Port Road,Nome,99762,64.505331,-165.429814
13642,Nome Joint Utility Systems,90,Snake River,AK,Nome,EWT 1,OP,Onshore Wind Turbine,WT,Electric Utility,1,0.9,0.9,0.9,7,2013,1,EWT,DW54-900,20,2,164,wind,2016,1226 Port Road,Nome,99762,64.505331,-165.429814
13642,Nome Joint Utility Systems,90,Snake River,AK,Nome,EWT 2,OP,Onshore Wind Turbine,WT,Electric Utility,1,0.9,0.9,0.9,7,2013,1,EWT,DW54-900,20,2,164,wind,2016,1226 Port Road,Nome,99762,64.505331,-165.429814
10633,City of Lamar - (CO),508,Lamar Plant,CO,Prowers,T1-T3,OP,Onshore Wind Turbine,WT,Electric Utility,1,4.5,4,4,2,2004,3,GE,1.5 XLE,19,2,262.4,wind,2016,100 North Second Street,Lamar,81052,38.033327,-102.537915
10633,City of Lamar - (CO),508,Lamar Plant,CO,Prowers,T4,OP,Onshore Wind Turbine,WT,Electric Utility,1,1.5,1.5,1.5,2,2004,1,GE,1.5 XLE,19,2,262.4,wind,2016,100 North Second Street,Lamar,81052,38.033327,-102.537915
56990,NJR Clean Energy Ventures Corporation,692,Medicine Bow,WY,Carbon,10,OP,Onshore Wind Turbine,WT,Electric Utility,1,0.7,0.7,0.7,7,2000,9,Vestas,V47-660,18.8,2,164,wind,2016,475 Carbon Co. Rd. 3,Medicine Bow,82329,41.835278,-106.242778
56990,NJR Clean Energy Ventures Corporation,692,Medicine Bow,WY,Carbon,11,OP,Onshore Wind Turbine,WT,Electric Utility,1,0.7,0.7,0.7,7,2000,1,Vestas,V47-660,18.8,2,164,wind,2016,475 Carbon Co. Rd. 3,Medicine Bow,82329,41.835278,-106.242778
56990,NJR Clean Energy Ventures Corporation,692,Medicine Bow,WY,Carbon,1A,OP,Onshore Wind Turbine,WT,Electric Utility,1,0.6,0.6,0.6,4,1998,1,Vestas,V47-660,18.8,2,164,wind,2016,475 Carbon Co. Rd. 3,Medicine Bow,82329,41.835278,-106.242778
56990,NJR Clean Energy Ventures Corporation,692,Medicine Bow,WY,Carbon,2A,OP,Onshore Wind Turbine,WT,Electric Utility,1,0.6,0.6,0.6,4,1998,1,Vestas,V47-660,18.8,2,164,wind,2016,475 Carbon Co. Rd. 3,Medicine Bow,82329,41.835278,-106.242778
56990,NJR Clean Energy Ventures Corporation,692,Medicine Bow,WY,Carbon,5,OP,Onshore Wind Turbine,WT,Electric Utility,1,0.7,0.7,0.7,10,1999,1,Vestas,V47-660,18.8,2,164,wind,2016,475 Carbon Co. Rd. 3,Medicine Bow,82329,41.835278,-106.242778
56990,NJR Clean Energy Ventures Corporation,692,Medicine Bow,WY,Carbon,6,OP,Onshore Wind Turbine,WT,Electric Utility,1,0.7,0.7,0.7,10,1999,1,Vestas,V47-660,18.8,2,164,wind,2016,475 Carbon Co. Rd. 3,Medicine Bow,82329,41.835278,-106.242778
56990,NJR Clean Energy Ventures Corporation,692,Medicine Bow,WY,Carbon,7,OP,Onshore Wind Turbine,WT,Electric Utility,1,0.7,0.7,0.7,10,1999,1,Vestas,V47-660,18.8,2,164,wind,2016,475 Carbon Co. Rd. 3,Medicine Bow,82329,41.835278,-106.242778
56990,NJR Clean Energy Ventures Corporation,692,Medicine Bow,WY,Carbon,8,OP,Onshore Wind Turbine,WT,Electric Utility,1,0.7,0.7,0.7,10,1999,1,Vestas,V47-660,18.8,2,164,wind,2016,475 Carbon Co. Rd. 3,Medicine Bow,82329,41.835278,-106.242778
56990,NJR Clean Energy Ventures Corporation,692,Medicine Bow,WY,Carbon,9,OP,Onshore Wind Turbine,WT,Electric Utility,1,0.7,0.7,0.7,10,1999,1,Vestas,V47-660,18.8,2,164,wind,2016,475 Carbon Co. Rd. 3,Medicine Bow,82329,41.835278,-106.242778
7095,City of Geneseo - (IL),944,Geneseo,IL,Henry,10,OP,Onshore Wind Turbine,WT,Electric Utility,1,1.5,1.5,1.5,9,2009,1,VENSYS,VENSYS77,18,2,200,wind,2016,433 East North Street,Geneseo,61254,41.451494,-90.148547
7095,City of Geneseo - (IL),944,Geneseo,IL,Henry,11,OP,Onshore Wind Turbine,WT,Electric Utility,1,1.5,1.5,1.5,10,2009,1,VENSYS,VENSYS77,18,2,200,wind,2016,433 East North Street,Geneseo,61254,41.451494,-90.148547
14201,City of Osage - (IA),1172,Osage (IA),IA,Mitchell,W1,OP,Onshore Wind Turbine,WT,Electric Utility,1,1.6,0.5,0.5,12,2009,1,GE,1.5 SLE,17.8,2,260,wind,2016,720 Chestnut,Osage,50461,43.279722,-92.810556
13048,City of Mountain Lake - (MN),1998,Mountain Lake,MN,Cottonwood,8,OP,Onshore Wind Turbine,WT,Electric Utility,1,1.2,1.2,1.2,7,2007,1,Suzlon,S64-1250,15,2,246,wind,2016,925 2nd Ave.,mountain lake,56159,43.9405,-94.9434
20737,Willmar Municipal Utilities,2022,Willmar,MN,Kandiyohi,WTG3,OP,Onshore Wind Turbine,WT,Electric Utility,1,2,2,2,8,2009,1,DeWind,D8.2,14.7,2,262.4,wind,2016,710 Benson Avenue Southwest,Willmar,56201,45.121705,-95.053236
20737,Willmar Municipal Utilities,2022,Willmar,MN,Kandiyohi,WTG4,OP,Onshore Wind Turbine,WT,Electric Utility,1,2,2,2,8,2009,1,DeWind,D8.2,14.7,2,262.4,wind,2016,710 Benson Avenue Southwest,Willmar,56201,45.121705,-95.053236
21013,City of Worthington - (MN),2024,Worthington,MN,Nobles,10,OP,Onshore Wind Turbine,WT,Electric Utility,1,0.9,0.9,0.9,7,2002,1,NEG-Micon,NM52/900,19,2,240,wind,2016,N/A,Worthington,56187,43.63349,-95.609234
21013,City of Worthington - (MN),2024,Worthington,MN,Nobles,11,OP,Onshore Wind Turbine,WT,Electric Utility,1,0.9,0.9,0.9,7,2002,1,NEG-Micon,NM52/900,19,2,240,wind,2016,N/A,Worthington,56187,43.63349,-95.609234
21013,City of Worthington - (MN),2024,Worthington,MN,Nobles,12,OP,Onshore Wind Turbine,WT,Electric Utility,1,1,1,1,12,2003,1,NEG-Micon,NM54/950,19,2,240,wind,2016,N/A,Worthington,56187,43.63349,-95.609234
21013,City of Worthington - (MN),2024,Worthington,MN,Nobles,13,OP,Onshore Wind Turbine,WT,Electric Utility,1,1,1,1,12,2003,1,NEG-Micon,NM54/950,19,2,240,wind,2016,N/A,Worthington,56187,43.63349,-95.609234
21013,City of Worthington - (MN),2024,Worthington,MN,Nobles,8,OP,Onshore Wind Turbine,WT,Electric Utility,1,0.9,0.9,0.9,7,2002,1,NEG-Micon,NM52/900,19,2,240,wind,2016,N/A,Worthington,56187,43.63349,-95.609234
21013,City of Worthington - (MN),2024,Worthington,MN,Nobles,9,OP,Onshore Wind Turbine,WT,Electric Utility,1,0.9,0.9,0.9,7,2002,1,NEG-Micon,NM52/900,19,2,240,wind,2016,N/A,Worthington,56187,43.63349,-95.609234
10451,Kotzebue Electric Assn Inc,6304,Kotzebue,AK,Northwest Arctic,10wt,OP,Onshore Wind Turbine,WT,Electric Utility,1,0.1,0.1,0.1,7,1999,1,AOC,AOC15/50,13,2,90,wind,2016,245 4th Street,Kotzebue,99752,66.837778,-162.556944
10451,Kotzebue Electric Assn Inc,6304,Kotzebue,AK,Northwest Arctic,11wt,OP,Onshore Wind Turbine,WT,Electric Utility,1,0.1,0.1,0.1,5,2005,1,AOC,AOC15/50,13,2,90,wind,2016,245 4th Street,Kotzebue,99752,66.837778,-162.556944
10451,Kotzebue Electric Assn Inc,6304,Kotzebue,AK,Northwest Arctic,12wt,OP,Onshore Wind Turbine,WT,Electric Utility,1,0.1,0.1,0.1,5,2005,1,AOC,AOC15/50,13,2,90,wind,2016,245 4th Street,Kotzebue,99752,66.837778,-162.556944
10451,Kotzebue Electric Assn Inc,6304,Kotzebue,AK,Northwest Arctic,13WT,OP,Onshore Wind Turbine,WT,Electric Utility,1,0.1,0.1,0.1,5,2006,1,Vestas,V15,13,2,90,wind,2016,245 4th Street,Kotzebue,99752,66.837778,-162.556944
10451,Kotzebue Electric Assn Inc,6304,Kotzebue,AK,Northwest Arctic,14wt,OP,Onshore Wind Turbine,WT,Electric Utility,1,0.1,0.1,0.1,5,2002,1,Northern Power,Northwind 100,13,2,90,wind,2016,245 4th Street,Kotzebue,99752,66.837778,-162.556944
10451,Kotzebue Electric Assn Inc,6304,Kotzebue,AK,Northwest Arctic,15WT,OP,Onshore Wind Turbine,WT,Electric Utility,1,0.1,0.1,0.1,5,2006,1,AOC,AOC15/50,13,2,90,wind,2016,245 4th Street,Kotzebue,99752,66.837778,-162.556944
10451,Kotzebue Electric Assn Inc,6304,Kotzebue,AK,Northwest Arctic,16WT,OP,Onshore Wind Turbine,WT,Electric Utility,1,0.1,0.1,0.1,5,2006,1,AOC,AOC15/50,13,2,90,wind,2016,245 4th Street,Kotzebue,99752,66.837778,-162.556944
10451,Kotzebue Electric Assn Inc,6304,Kotzebue,AK,Northwest Arctic,17WT,OP,Onshore Wind Turbine,WT,Electric Utility,1,0.1,0.1,0.1,5,2006,1,AOC,AOC15/50,13,2,90,wind,2016,245 4th Street,Kotzebue,99752,66.837778,-162.556944
10451,Kotzebue Electric Assn Inc,6304,Kotzebue,AK,Northwest Arctic,18WT,OP,Onshore Wind Turbine,WT,Electric Utility,1,0.9,0.9,0.9,5,2012,1,EWT,DW54-900,13,2,250,wind,2016,245 4th Street,Kotzebue,99752,66.837778,-162.556944
10451,Kotzebue Electric Assn Inc,6304,Kotzebue,AK,Northwest Arctic,19WT,OP,Onshore Wind Turbine,WT,Electric Utility,1,0.9,0.9,0.9,5,2012,1,EWT,DW54-900,13,2,250,wind,2016,245 4th Street,Kotzebue,99752,66.837778,-162.556944
10451,Kotzebue Electric Assn Inc,6304,Kotzebue,AK,Northwest Arctic,1WT,OP,Onshore Wind Turbine,WT,Electric Utility,1,0.6,0.6,0.6,5,1999,10,AOC,AOC15/50,13,2,90,wind,2016,245 4th Street,Kotzebue,99752,66.837778,-162.556944
10451,Kotzebue Electric Assn Inc,6304,Kotzebue,AK,Northwest Arctic,2WT,OP,Onshore Wind Turbine,WT,Electric Utility,1,0.1,0.1,0.1,5,1999,1,AOC,AOC15/50,13,2,90,wind,2016,245 4th Street,Kotzebue,99752,66.837778,-162.556944
10451,Kotzebue Electric Assn Inc,6304,Kotzebue,AK,Northwest Arctic,3WT,OP,Onshore Wind Turbine,WT,Electric Utility,1,0.2,0.2,0.2,1,1997,3,AOC,AOC15/50,13,2,90,wind,2016,245 4th Street,Kotzebue,99752,66.837778,-162.556944
10451,Kotzebue Electric Assn Inc,6304,Kotzebue,AK,Northwest Arctic,4WT,OP,Onshore Wind Turbine,WT,Electric Utility,1,0.5,0.5,0.5,1,1999,7,AOC,AOC15/50,13,2,90,wind,2016,245 4th Street,Kotzebue,99752,66.837778,-162.556944
10451,Kotzebue Electric Assn Inc,6304,Kotzebue,AK,Northwest Arctic,5WT,OP,Onshore Wind Turbine,WT,Electric Utility,1,0.1,0.1,0.1,1,2002,1,AOC,AOC15/50,13,2,90,wind,2016,245 4th Street,Kotzebue,99752,66.837778,-162.556944
10451,Kotzebue Electric Assn Inc,6304,Kotzebue,AK,Northwest Arctic,6WT,OP,Onshore Wind Turbine,WT,Electric Utility,1,0.1,0.1,0.1,1,2005,2,AOC,AOC15/50,13,2,90,wind,2016,245 4th Street,Kotzebue,99752,66.837778,-162.556944
10451,Kotzebue Electric Assn Inc,6304,Kotzebue,AK,Northwest Arctic,7WT,OP,Onshore Wind Turbine,WT,Electric Utility,1,0.1,0.1,0.1,2,2006,4,AOC,AOC15/50,13,2,90,wind,2016,245 4th Street,Kotzebue,99752,66.837778,-162.556944
10451,Kotzebue Electric Assn Inc,6304,Kotzebue,AK,Northwest Arctic,8WT,OP,Onshore Wind Turbine,WT,Electric Utility,1,0.1,0.1,0.1,7,1999,1,AOC,AOC15/50,13,2,90,wind,2016,245 4th Street,Kotzebue,99752,66.837778,-162.556944
10451,Kotzebue Electric Assn Inc,6304,Kotzebue,AK,Northwest Arctic,9wt,OP,Onshore Wind Turbine,WT,Electric Utility,1,0.1,0.1,0.1,7,1999,1,AOC,AOC15/50,13,2,90,wind,2016,245 4th Street,Kotzebue,99752,66.837778,-162.556944
20860,Wisconsin Public Service Corp,7366,Lincoln Turbines,WI,Kewaunee,1,OP,Onshore Wind Turbine,WT,Electric Utility,1,9.2,0.9,2.2,6,1999,14,Vestas,V47-660,15.4,1,213,wind,2016,Cedar Lane,Algoma,54201,44.6108,-87.5586
7601,Green Mountain Power Corp,7381,Searsburg Wind Turbine,VT,Bennington,1,OP,Onshore Wind Turbine,WT,Electric Utility,1,6,5.2,5,6,1997,11,Zond,Z-40,18,1,132,wind,2016,528 Sleepy Hollow Road,Searsburg,5363,42.8625,-72.9628
15371,Town of Princeton - (MA),7501,Princeton Wind Farm,MA,Worcester,2,OP,Onshore Wind Turbine,WT,Electric Utility,1,3,3,3,1,2010,2,Fuhrlander,FL 1500-77,16,2,230,wind,2016,Westminster Road,Princeton,1541,42.4789,-71.9
16534,Sacramento Municipal Util Dist,7526,Solano Wind,CA,Solano,1,OP,Onshore Wind Turbine,WT,Electric Utility,1,13.2,13.1,13.2,6,1994,23,Vestas,V47-660,16.8,2,180,wind,2016,Highway 12,Rio Vista,94512,38.116415,-121.769031
16534,Sacramento Municipal Util Dist,7526,Solano Wind,CA,Solano,2,OP,Onshore Wind Turbine,WT,Electric Utility,1,24,24,24,6,2006,8,Vestas,V90-3.0,16.8,2,262.4,wind,2016,Highway 12,Rio Vista,94512,38.116415,-121.769031
16534,Sacramento Municipal Util Dist,7526,Solano Wind,CA,Solano,2B,OP,Onshore Wind Turbine,WT,Electric Utility,1,63,63,63,12,2007,21,Vestas,V90-3.0,16.8,2,262.4,wind,2016,Highway 12,Rio Vista,94512,38.116415,-121.769031
16534,Sacramento Municipal Util Dist,7526,Solano Wind,CA,Solano,3,OP,Onshore Wind Turbine,WT,Electric Utility,1,128,128,128,4,2012,55,Vestas,V90-1.8,16.8,2,262.4,wind,2016,Highway 12,Rio Vista,94512,38.116415,-121.769031
58190,Bluestem LLC,7771,Springview,NE,Keya Paha,3,OP,Onshore Wind Turbine,WT,IPP Non-CHP,2,1.5,1.5,1.5,6,2011,1,VENSYS,VENSYS77,16,2,201.7,wind,2016,West Highway 12,Springview,68778,42.82579,-99.777467
58190,Bluestem LLC,7771,Springview,NE,Keya Paha,4,OP,Onshore Wind Turbine,WT,IPP Non-CHP,2,1.5,1.5,1.5,6,2011,1,VENSYS,VENSYS77,16,2,201.7,wind,2016,West Highway 12,Springview,68778,42.82579,-99.777467
12894,City of Moorhead - (MN),7855,Moorhead Wind Turbine,MN,Clay,8,OP,Onshore Wind Turbine,WT,Electric Utility,1,0.7,0.7,0.7,5,1999,1,NEG-Micon,NM48/750,19,2,180,wind,2016,2200 28th St. N.,Moorhead,56560,46.895,-96.7347
12894,City of Moorhead - (MN),7855,Moorhead Wind Turbine,MN,Clay,9,OP,Onshore Wind Turbine,WT,Electric Utility,1,0.7,0.7,0.7,9,2001,1,NEG-Micon,NM48/750,19,2,180,wind,2016,2200 28th St. N.,Moorhead,56560,46.895,-96.7347
11479,Madison Gas & Electric Co,7886,Wind Turbine,WI,Kewaunee,1,OP,Onshore Wind Turbine,WT,Electric Utility,1,11,0.9,0.9,6,1999,17,Vestas,V47-660,18,3,213,wind,2016,E2680 Eagle Road,Casco,54205,44.6694,-87.6333
20847,Wisconsin Electric Power Co,7901,Byron,WI,Fond Du Lac,1,OP,Onshore Wind Turbine,WT,Electric Utility,1,0.7,0.1,0.1,6,1999,1,Vestas,V47-660,19,1,213.2,wind,2016,5656 County Trunk Highway F,Fond du Lac,54935,43.6575,-88.4381
20847,Wisconsin Electric Power Co,7901,Byron,WI,Fond Du Lac,2,OP,Onshore Wind Turbine,WT,Electric Utility,1,0.7,0.1,0.1,6,1999,1,Vestas,V47-660,19,1,213.2,wind,2016,5656 County Trunk Highway F,Fond du Lac,54935,43.6575,-88.4381
18642,Tennessee Valley Authority,7927,Buffalo Mountain,TN,Anderson,1,OP,Onshore Wind Turbine,WT,Electric Utility,1,0.6,0.7,0.7,10,2000,1,Vestas,V47-660,15.2,4,213,wind,2016,1980 Windrock Rd,Oliver Springs,37840,36.120994,-84.338733
18642,Tennessee Valley Authority,7927,Buffalo Mountain,TN,Anderson,2,OP,Onshore Wind Turbine,WT,Electric Utility,1,0.6,0.7,0.7,10,2000,1,Vestas,V47-660,15.2,4,213,wind,2016,1980 Windrock Rd,Oliver Springs,37840,36.120994,-84.338733
18642,Tennessee Valley Authority,7927,Buffalo Mountain,TN,Anderson,3,OP,Onshore Wind Turbine,WT,Electric Utility,1,0.6,0.7,0.7,10,2000,1,Vestas,V47-660,15.2,4,213,wind,2016,1980 Windrock Rd,Oliver Springs,37840,36.120994,-84.338733
20160,Energy Northwest,7936,Nine Canyon,WA,Benton,1,OP,Onshore Wind Turbine,WT,Electric Utility,1,95.9,95,95,9,2002,63,Siemens,SWT-1.3-62,14,4,200,wind,2016,92308 S. Nine Canyon Road,Kennewick,99336,46.0958,-119.0964
11018,Lincoln Electric System,7965,Salt Valley Wind Plant,NE,Lancaster,G1,OP,Onshore Wind Turbine,WT,Electric Utility,1,0.6,0.7,0.7,12,1998,1,Vestas,V47-660,17,3,213,wind,2016,9700 N 70th Street,Lincoln,68517,40.9044,-96.6231
11018,Lincoln Electric System,7965,Salt Valley Wind Plant,NE,Lancaster,G2,OP,Onshore Wind Turbine,WT,Electric Utility,1,0.6,0.7,0.7,10,1999,1,Vestas,V47-660,17,3,213,wind,2016,9700 N 70th Street,Lincoln,68517,40.9044,-96.6231
309,City of Algona - (IA),7966,Iowa Distributed Wind Generation Project,IA,Kossuth,IDWG,OP,Onshore Wind Turbine,WT,Electric Utility,1,2.3,2.3,2.3,6,2000,3,Zond,Z-50,15.7,2,165,wind,2016,1604 190th Street,Algona,50511,43.034722,-94.140556
1307,Basin Electric Power Coop,7974,Chamberlain Wind Project,SD,Brule,WTC1,OP,Onshore Wind Turbine,WT,Electric Utility,1,1.3,1.3,1.3,11,2001,1,Nordex,N60/1300,18.8,1,196.9,wind,2016,Hwy 50,Chamberlain,57325,43.848529,-99.24757
1307,Basin Electric Power Coop,7974,Chamberlain Wind Project,SD,Brule,WTC2,OP,Onshore Wind Turbine,WT,Electric Utility,1,1.3,1.3,1.3,11,2001,1,Nordex,N60/1300,18.8,1,196.9,wind,2016,Hwy 50,Chamberlain,57325,43.848529,-99.24757
9397,International Turbine Res Inc,10005,Dinosaur Point,CA,Merced,WTGS,OP,Onshore Wind Turbine,WT,IPP Non-CHP,2,17.4,17,16,5,1988,161,Vestas,V17-90,15.4,2,80,wind,2016,1400 Dinosaur Point,Los Banos,93635,37.0478,-121.1708
6042,EUI Management PH Inc,10027,Windpark Unlimited 1,CA,Riverside,EXIS,OP,Onshore Wind Turbine,WT,IPP Non-CHP,2,9.4,9.4,9.4,12,1985,91,Bonus,B19/120,25,1,80,wind,2016,Not Applicable,Desert Hot Springs,92240,33.9447,-116.6222
2719,CalWind Resources Inc,10191,Tehachapi Wind Resource I,CA,Kern,EXIS,OP,Onshore Wind Turbine,WT,IPP Non-CHP,2,8.7,8.7,8.7,12,1984,134,Nordtank,NTK 65/13,17,1,80,wind,2016,16541 Tehachapi-Willow Springs,Tehachapi,93581,35.060556,-118.389722
2770,Terra-Gen Operating Co LLC,10586,Cameron Ridge LLC,CA,Kern,EXIS,OP,Onshore Wind Turbine,WT,IPP Non-CHP,2,59.6,59.6,59.6,12,1984,114,Micon,M700-225/40,22.4,1,180,wind,2016,10315 Oak Creek Road,Mojave,93501,35.075,-118.3158
2770,Terra-Gen Operating Co LLC,10597,Ridgetop Energy LLC,CA,Kern,WGN1,OP,Onshore Wind Turbine,WT,IPP Non-CHP,2,29,29,29,1,1984,239,Nordtank,NTK 75/15,22.4,1,85,wind,2016,10315 Oak Creek Road,Mojave,93501,35.0697,-118.3167
16630,San Gorgonio Farms Inc,10718,Karen Avenue Wind Farm,CA,Riverside,WND,OP,Onshore Wind Turbine,WT,IPP Non-CHP,2,11.7,11.7,11.7,1,1985,12,GE,1.5 S,21,1,185,wind,2016,17550 Karen Ave.,North Palm Springs,92258,33.92194,-116.56222
11427,Massachusetts Wtr RAuth-Deer I,10823,Deer Island Treatment Plant,MA,Suffolk,WT101,OP,Onshore Wind Turbine,WT,Commercial CHP,5,0.6,0.6,0.6,11,2009,1,Vestas,PS-600,20.4,2,195,wind,2016,190 Tafts Avenue,Winthrop,2152,42.353333,-70.962778
11427,Massachusetts Wtr RAuth-Deer I,10823,Deer Island Treatment Plant,MA,Suffolk,WT102,OP,Onshore Wind Turbine,WT,Commercial CHP,5,0.6,0.6,0.6,11,2009,1,Vestas,PS-600,20.4,2,195,wind,2016,190 Tafts Avenue,Winthrop,2152,42.353333,-70.962778
20707,Wintec Energy Ltd,50276,Wintec Energy Ltd,CA,Riverside,EXIS,OP,Onshore Wind Turbine,WT,IPP Non-CHP,2,5.9,5.9,5.9,12,1986,60,Renewtech,WT100,17.5,2,80,wind,2016,Dillon Rd_KarenAve_Diablo Rd,Palm Springs,92258,33.9131,-116.5631
16630,San Gorgonio Farms Inc,50281,San Gorgonio Farms Wind Farm,CA,Riverside,WGEN,OP,Onshore Wind Turbine,WT,IPP Non-CHP,2,31,31,31,3,1983,111,Vestas,V42-600,22,1,131,wind,2016,79 Dillon Road,Whitewater,92282,33.926111,-116.615
20791,Windland Inc,50386,Windland,CA,Kern,WING,OP,Onshore Wind Turbine,WT,IPP Non-CHP,2,15.3,15.5,15.5,12,1982,60,Vestas,V27-225,19,1,262,wind,2016,10901 Cameron Road,Mojave,93501,35.0522,-118.3581
57421,BayWa r.e Wind LLC,50485,Altech III,CA,Riverside,GEN1,OP,Onshore Wind Turbine,WT,IPP Non-CHP,2,21.7,21.7,21.7,12,1985,201,Micon,M110,12,1,80,wind,2016,19435 Ruppert Street,North Palm Springs,92258,33.915023,-116.555064
57421,BayWa r.e Wind LLC,50485,Altech III,CA,Riverside,GEN2,OP,Onshore Wind Turbine,WT,IPP Non-CHP,2,3.4,3.4,3.4,12,1984,53,Micon,M66/13,12,1,80,wind,2016,19435 Ruppert Street,North Palm Springs,92258,33.915023,-116.555064
56899,Wind Stream Operations LLC,50532,Victory Garden (Tehachapi),CA,Kern,15SLE,OP,Onshore Wind Turbine,WT,IPP Non-CHP,2,1.5,1.5,1.5,5,2000,1,GE,1.5 S,19.5,2,210,wind,2016,"19358 Jameson St.,",Tehachapi,93561,35.068600000000004,-118.3833
56899,Wind Stream Operations LLC,50532,Victory Garden (Tehachapi),CA,Kern,WGNS,OP,Onshore Wind Turbine,WT,IPP Non-CHP,2,19.6,19.6,19.6,12,1981,241,Vestas,V15,16.5,1,80,wind,2016,"19358 Jameson St.,",Tehachapi,93561,35.068600000000004,-118.3833
55759,H H Management LLC,50533,Painted Hills,CA,Riverside,WGNS,OP,Onshore Wind Turbine,WT,IPP Non-CHP,2,19,19,19,11,1985,228,Vestas,V17-75,22,1,80,wind,2016,60105 Westside Drive,Whitewater,92282,33.9369,-116.6183
11556,Brookfield Energy Marketing LP,50535,Mesa Wind Power Corp,CA,Riverside,WGNS,OP,Onshore Wind Turbine,WT,IPP Non-CHP,2,29.9,29.9,29.9,11,1984,460,Vestas,V15,15.7,1,80,wind,2016,11001 Whitewater Canyon,North Palm Springs,92258,33.9461,-116.6769
17288,Sky River LLC,50536,Sky River LLC,CA,Kern,WGNS,OP,Onshore Wind Turbine,WT,IPP Non-CHP,2,76.9,76.9,76.9,2,1991,313,Vestas,V27-225,23,1,185,wind,2016,13000 Jameson Road,Tehachapi,93561,35.2608,-118.2469
49751,FPL Energy Cabazon Wind,50552,Cabazon Wind Farm,CA,Riverside,WGNS,OP,Onshore Wind Turbine,WT,IPP Non-CHP,2,39.7,39.7,39.7,1,1999,53,Zond,Z-48,19,2,213,wind,2016,19020 N Indian Avenue Bldg 11,North Palm Springs,92230,33.914986,-116.71026
55963,AE Power Services LLC,50553,Edom Hills Project 1 LLC,CA,Riverside,1,OP,Onshore Wind Turbine,WT,IPP Non-CHP,2,20,20,20,9,2008,8,Clipper,Liberty C93,19,2,262.4,wind,2016,68580 Edom Hill Road,Cathedral City,92235,33.881667,-116.460278
2770,Terra-Gen Operating Co LLC,50690,San Gorgonio Westwinds II LLC,CA,Riverside,GEN1,OP,Onshore Wind Turbine,WT,IPP Non-CHP,2,43.4,43.4,43.4,6,1999,62,Micon,M700-225/40,22.4,1,180,wind,2016,19435 Ruppert Street,N Palm Springs,92258,33.934,-116.5781
13938,Oak Creek Energy System Inc II,50754,Oak Creek Energy Systems I,CA,Kern,GEN1,OP,Onshore Wind Turbine,WT,IPP Non-CHP,2,3.5,3.5,3.5,6,1982,37,Nordtank,NTK 75/15,22.4,1,85,wind,2016,14633 Willow Springs Rd.,Mojave,93501,35.043889,-118.276388
13938,Oak Creek Energy System Inc II,50754,Oak Creek Energy Systems I,CA,Kern,GEN2,OP,Onshore Wind Turbine,WT,IPP Non-CHP,2,4.2,4.2,4.2,12,1993,7,Micon,M750-400/100,22.4,1,180,wind,2016,14633 Willow Springs Rd.,Mojave,93501,35.043889,-118.276388
13938,Oak Creek Energy System Inc II,50754,Oak Creek Energy Systems I,CA,Kern,GEN3,OP,Onshore Wind Turbine,WT,IPP Non-CHP,2,23.1,23.1,23.1,6,1999,33,Micon,M750-400/100,22.4,1,180,wind,2016,14633 Willow Springs Rd.,Mojave,93501,35.043889,-118.276388
13938,Oak Creek Energy System Inc II,50754,Oak Creek Energy Systems I,CA,Kern,GEN4,OP,Onshore Wind Turbine,WT,IPP Non-CHP,2,3.7,3.7,3.7,6,1999,4,Micon,M750-400/100,22.4,1,180,wind,2016,14633 Willow Springs Rd.,Mojave,93501,35.043889,-118.276388
59901,Yavi Energy LLC,50820,East Winds Project,CA,Riverside,GEN1,OP,Onshore Wind Turbine,WT,IPP Non-CHP,2,3,3,3,1,1985,5,Micon,M1500-600/150,15,1,151,wind,2016,5400 N Indian Canyon Drive,Palm Springs,92262,33.890913,-116.541515
2770,Terra-Gen Operating Co LLC,50821,Mojave 16,CA,Kern,GEN1,OP,Onshore Wind Turbine,WT,IPP Non-CHP,2,30,30,30,12,1989,118,Mitsubishi,MWT-250,22.4,1,100,wind,2016,7021 Oak Creek Road,Mojave,93501,35.045,-118.2642
2770,Terra-Gen Operating Co LLC,50822,Mojave 17,CA,Kern,GEN1,OP,Onshore Wind Turbine,WT,IPP Non-CHP,2,25,25,25,11,1989,95,Mitsubishi,MWT-250,22.4,1,100,wind,2016,7021 Oak Creek Road,Mojave,93501,35.044,-118.2765
2770,Terra-Gen Operating Co LLC,50823,Mojave 18,CA,Kern,GEN1,OP,Onshore Wind Turbine,WT,IPP Non-CHP,2,30,30,30,12,1989,120,Mitsubishi,MWT-250,22.4,1,100,wind,2016,7021 Oak Creek Road,Mojave,93501,35.046,-118.2757
2770,Terra-Gen Operating Co LLC,52142,Mojave 4,CA,Kern,GEN1,OP,Onshore Wind Turbine,WT,IPP Non-CHP,2,29,29,29,12,1990,116,Mitsubishi,MWT-250,14,2,100,wind,2016,7021 Oak Creek Road,Mojave,93501,35.0506,-118.2572
2770,Terra-Gen Operating Co LLC,52143,Mojave 3,CA,Kern,GEN1,OP,Onshore Wind Turbine,WT,IPP Non-CHP,2,23.5,23.5,23.5,12,1990,94,Mitsubishi,MWT-250,14,2,100,wind,2016,7021 Oak Creek Road,Mojave,93501,35.068,-118.2898
2770,Terra-Gen Operating Co LLC,52144,Mojave 5,CA,Kern,GEN1,OP,Onshore Wind Turbine,WT,IPP Non-CHP,2,22.5,22.5,22.5,12,1990,90,Mitsubishi,MWT-250,14,1,100,wind,2016,7021 Oak Creek Road,Mojave,93501,35.076,-118.2487
2770,Terra-Gen Operating Co LLC,52160,Victory Garden Phase IV LLC,CA,Kern,WGNS,OP,Onshore Wind Turbine,WT,IPP Non-CHP,2,22,22,22,5,1990,96,Vestas,V27-225,22.4,1,140,wind,2016,13000 Jameson Rd.,Techapi,93581,35.076,-118.3664
2770,Terra-Gen Operating Co LLC,52161,Terra-Gen 251 Wind LLC,CA,Kern,WGNS,OP,Onshore Wind Turbine,WT,IPP Non-CHP,2,18.4,18.4,18.4,1,1987,196,Vestas,V17-90,22.4,1,80,wind,2016,13000 Jameson Road,Tehachapi,93561,35.0853,-118.3547
19740,AES Wind Generation Inc,52162,85 A,CA,Kern,WGNS,OP,Onshore Wind Turbine,WT,IPP Non-CHP,2,14.1,14.1,14.1,1,1985,157,Vestas,V17-75,26.8,1,80,wind,2016,161 N. Mill Unit A,Tehachapi,93561,35.1011,-118.3372
19740,AES Wind Generation Inc,52163,85 B,CA,Kern,WTGN,OP,Onshore Wind Turbine,WT,IPP Non-CHP,2,21.2,21.2,21.2,1,1985,235,Vestas,V17-75,26.8,1,80,wind,2016,161 N. Mill Unit A,Tehachapi,93561,35.1011,-118.3372
19740,AES Wind Generation Inc,52165,Helzel & Schwarzhoff 88 Wind Farm,CA,Kern,WGNS,OP,Onshore Wind Turbine,WT,IPP Non-CHP,2,1.8,1.8,1.8,12,1986,20,Vestas,V17-75,26.8,1,80,wind,2016,13000 Jameson Road,Tehachapi,93561,35.0908,-118.3936
59099,"New Dimension Energy Company, LLC",54258,Westwind Trust,CA,Riverside,WIN1,OS,Onshore Wind Turbine,WT,IPP Non-CHP,2,16,16,16,9,1986,140,Micon,M66/13,15,2,75.4,wind,2016,Dillon Road,North Palm Springs,92258,33.9683,-116.5347
11556,Brookfield Energy Marketing LP,54298,Coram Energy LLC (ECT),CA,Kern,GEWE,OP,Onshore Wind Turbine,WT,IPP Non-CHP,2,7.5,7.5,7.5,5,2005,5,GE,1.5-77,19.2,1,213.2,wind,2016,6703 Oak Creek Road,Tehachapi,93501,35.0583,-118.3417
11556,Brookfield Energy Marketing LP,54299,Coram Energy LLC,CA,Kern,GEWE,OP,Onshore Wind Turbine,WT,IPP Non-CHP,2,3,3,3,1,2005,2,GE,1.5-77,19.2,1,213.2,wind,2016,6703 Oak Creek Road,Tehachapi,93501,35.075,-118.3417
11556,Brookfield Energy Marketing LP,54300,CTV Power Purchase Contract Trust,CA,Kern,GEWE,OP,Onshore Wind Turbine,WT,IPP Non-CHP,2,4.5,4.5,4.5,1,2004,3,GE,1.5-77,19.2,1,213.2,wind,2016,6703 Oak Creek Road,Tehachapi,93501,35.0583,-118.3083
11556,Brookfield Energy Marketing LP,54300,CTV Power Purchase Contract Trust,CA,Kern,SX1S,OS,Onshore Wind Turbine,WT,IPP Non-CHP,2,0.1,0.1,0.1,12,1985,3,GE,NA,19.2,1,213,wind,2016,6703 Oak Creek Road,Tehachapi,93501,35.0583,-118.3083
57170,"EDF Renewable Asset Holdings, Inc.",54453,EDF Renewable Windfarm V Inc,CA,Solano,GEN2,OP,Onshore Wind Turbine,WT,IPP Non-CHP,2,15.5,15.5,15.5,1,1990,71,GE,1.5 SLE,19,2,262.5,wind,2016,6523 Montezuma Hills Road,Birds Landing,94512,38.1167,-121.8333
49963,"FPL Energy Operating Services, Inc.",54454,San Gorgonio Windplant WPP1993,CA,Riverside,GEN11,OP,Onshore Wind Turbine,WT,IPP Non-CHP,2,49.5,49.5,49.5,12,2011,33,GE,1.5 SLE,19,2,213.3,wind,2016,NA,North Palm Springs,92258,33.918395,-116.573906
2770,Terra-Gen Operating Co LLC,54647,TPC Windfarms LLC,CA,Kern,EXIS,OP,Onshore Wind Turbine,WT,IPP Non-CHP,2,28.7,28.7,28.7,12,1986,100,Danwin,Danwin 23/160,21,2,80,wind,2016,7021 Oak Creek Road,Mojave,93501,35.05,-118.2572
11664,Mark Technologies Corp,54650,Swanmill Windfarm I,CA,Riverside,EXI2,OP,Onshore Wind Turbine,WT,IPP Non-CHP,2,9.1,9.1,9.1,12,1989,57,Danwin,Danwin 23/160,22,1,75.4,wind,2016,intst. 10 & Whitewater Canyon,N. Palm Springs,92264,33.942,-116.661
11664,Mark Technologies Corp,54650,Swanmill Windfarm I,CA,Riverside,EXIS,OP,Onshore Wind Turbine,WT,IPP Non-CHP,2,9.6,9.6,9.6,12,1988,60,Danwin,Danwin 23/160,22,1,75.4,wind,2016,intst. 10 & Whitewater Canyon,N. Palm Springs,92264,33.942,-116.661
57421,BayWa r.e Wind LLC,54681,Difwind Farms Ltd I,CA,Riverside,EXIS,OP,Onshore Wind Turbine,WT,IPP Non-CHP,2,7.3,7.3,7.3,1,1986,68,Micon,M100,15,2,75.4,wind,2016,Indian AV / I10,Palm Springs,92258,33.898856,-116.57281
57421,BayWa r.e Wind LLC,54682,Difwind Farms Ltd II,CA,Riverside,EXIS,OP,Onshore Wind Turbine,WT,IPP Non-CHP,2,5.5,5.4,5.4,1,1986,64,Micon,M66/13,15,2,75.4,wind,2016,Indian Av / I10,Palm Springs,92258,33.893685,-116.567811
57421,BayWa r.e Wind LLC,54685,Difwind Farms Ltd V,CA,Riverside,EXIS,OP,Onshore Wind Turbine,WT,IPP Non-CHP,2,11.7,11.6,11.6,1,1987,109,Micon,M100,15,2,75.4,wind,2016,Indian Avenue (s of railroad),Palm Springs,92258,33.887401,-116.578231
55928,Coram Tehachapi LP,54750,Coram Tehachapi,CA,Kern,VW1,OP,Onshore Wind Turbine,WT,IPP Non-CHP,2,6.5,6.5,6.5,9,1992,29,Vestas,V27-225,17.6,1,140,wind,2016,6703 Oak creek Road,Tehachapi,93501,35.0663,-118.339444
59496,Allete Clean Energy,54793,Storm Lake 1,IA,Buena Vista,2,OP,Onshore Wind Turbine,WT,IPP Non-CHP,2,0.7,0.7,0.7,6,1999,1,Zond,Z-50,17,3,213,wind,2016,5320 50th Ave,Alta,51002,42.6878,-95.405
59496,Allete Clean Energy,54793,Storm Lake 1,IA,Buena Vista,3,OP,Onshore Wind Turbine,WT,IPP Non-CHP,2,0.7,0.7,0.7,6,1999,1,Zond,Z-50,17,3,213,wind,2016,5320 50th Ave,Alta,51002,42.6878,-95.405
59496,Allete Clean Energy,54793,Storm Lake 1,IA,Buena Vista,EXIS,OP,Onshore Wind Turbine,WT,IPP Non-CHP,2,112.5,108,108,5,1999,144,Zond,Z-50,17,3,213,wind,2016,5320 50th Ave,Alta,51002,42.6878,-95.405
2719,CalWind Resources Inc,54909,Tehachapi Wind Resource II,CA,Kern,EXI2,OP,Onshore Wind Turbine,WT,IPP Non-CHP,2,8.3,8.3,8.3,12,2002,13,Vestas,V47-660,19,1,164,wind,2016,15001 E Tehachapi Blvd,Tehachapi,93561,35.1061,-118.3114
2719,CalWind Resources Inc,54909,Tehachapi Wind Resource II,CA,Kern,EXIS,OP,Onshore Wind Turbine,WT,IPP Non-CHP,2,13.6,13.6,13.6,1,1997,175,Bonus,B65/13,19,1,80,wind,2016,15001 E Tehachapi Blvd,Tehachapi,93561,35.1061,-118.3114
2770,Terra-Gen Operating Co LLC,54931,Ridgetop,CA,Kern,WGN1,OP,Onshore Wind Turbine,WT,IPP Non-CHP,2,46.8,46.9,46.9,4,1994,71,Vestas,V47-660,22.4,1,180,wind,2016,10315 Oak Creek Road,Mojave,93501,35.074,-118.3153
2770,Terra-Gen Operating Co LLC,54979,Big Spring Wind Power Facility,TX,Howard,WIND,OP,Onshore Wind Turbine,WT,IPP Non-CHP,2,34.3,34.3,34.3,12,1998,46,Vestas,V47-660,22.4,1,180,wind,2016,3300 South Moss Lake Rd,Big Spring,79720,32.2075,-101.388333
6017,ESI Vansycle Partners LP,55125,Vansycle,OR,Umatilla,WGNS,OP,Onshore Wind Turbine,WT,IPP Non-CHP,2,25,25,25,8,1998,38,Vestas,V47-660,22.4,1,164,wind,2016,365 Touchet Gardena Road,Touchet,97835,45.936157,-118.65999
15222,"Ponnequin Acquisitions, LLC",55203,Ponnequin Phase 1,CO,Weld,EXIS,OS,Onshore Wind Turbine,WT,IPP Non-CHP,2,5.2,5.2,5.2,3,1998,7,Micon,M750-400/100,16.5,2,160,wind,2016,Interstate 15 Exit 1,Close to Cheyenne  WY,82001,40.99616,-104.824943
59496,Allete Clean Energy,55208,Lake Benton I,MN,Lincoln,EXIS,OP,Onshore Wind Turbine,WT,IPP Non-CHP,2,107.2,104.5,104.5,2,1998,139,Zond,Z-46,16,1,175,wind,2016,Highway 14,Lake Benton,56149,44.2917,-96.375
26867,Lake Benton Power Part II LLC,55265,Lake Benton II,MN,Pipestone,EXIS,OP,Onshore Wind Turbine,WT,IPP Non-CHP,2,103.5,103.5,103.5,6,1999,137,Zond,Z-50,18.4,2,168,wind,2016,150 Evans Street,Ruthton,56170,44.129369,-96.116971
59496,Allete Clean Energy,55287,Storm Lake II,IA,Buena Vista,EXIS,OP,Onshore Wind Turbine,WT,IPP Non-CHP,2,80.2,76.5,76.5,4,1999,107,Zond,Z-50,16.5,1,217,wind,2016,5320 50th Ave,Alta,51002,42.8417,-95.405
56769,Consolidated Edison Development Inc.,55342,Woodstock Windfarm,MN,Pipestone,WIND,OP,Onshore Wind Turbine,WT,IPP Non-CHP,2,10.2,10.2,10.2,5,1999,17,Vestas,V44-600,17,2,196,wind,2016,996 190th Avenue,Woodstock,56186,43.985833,-96.078611
59182,Energy Operations Group LLC (MN),55353,Lakota Ridge LLC,MN,Lincoln,NMO1,OP,Onshore Wind Turbine,WT,IPP Non-CHP,2,11.2,11.2,11.2,4,1999,15,Micon,M750-400/100,15.6,1,164,wind,2016,City Road 1,Hendricks,56142,44.39956,-96.428367
59182,Energy Operations Group LLC (MN),55354,Shaokatan Hills LLC,MN,Lincoln,6150,OP,Onshore Wind Turbine,WT,IPP Non-CHP,2,11.8,11.8,11.8,8,1999,18,Vestas,V47-660,15.6,2,213,wind,2016,City Road 1,Hendricks,56142,44.421711,-96.434694
20424,West Texas Wind Energy Partners LLC,55367,West Texas Wind Energy LLC,TX,Upton,01,OP,Onshore Wind Turbine,WT,IPP Non-CHP,2,75,75,75,6,1999,106,NEG-Micon,NM48/750,19,2,118,wind,2016,120 E. 5th Street,McCamey,79752,31.1392,-102.2253
34688,CHI Energy Inc,55368,Wethersfield Wind Farm,NY,Wyoming,V47,SB,Onshore Wind Turbine,WT,IPP Non-CHP,2,6.6,6.6,6.6,8,2000,10,Vestas,V47-660,24,2,180,wind,2016,4179 Poplar Tree Road,Gainesville,14066,42.678819,-78.243792
49750,FPL Energy Green Power,55396,Green Power I,CA,Riverside,WGNS,OP,Onshore Wind Turbine,WT,IPP Non-CHP,2,16.5,16.5,16.5,7,1975,22,Zond,Z-50,19,2,295,wind,2016,19020 N Indian Avenue,North Palm Springs,92258,33.9014,-116.7167
6607,FPL Energy Vansycle LLC,55560,FPL Energy Vansycle LLC (WA),WA,Walla Walla,V-47,OP,Onshore Wind Turbine,WT,IPP Non-CHP,2,176.9,176.9,176.9,12,2001,268,Vestas,V47-660,22.4,1,164,wind,2016,356 Touchet Gardena Road,Touchet,99360,46.06,-118.917
54725,CHI Operations Inc,55561,Tsar Nicholas LLC,MN,Lincoln,TN30,OP,Onshore Wind Turbine,WT,IPP Non-CHP,2,1.9,1.9,1.9,2,2001,3,Vestas,V47-660,24,1,213,wind,2016,Hwy 1,Hendricks,56136,44.42,-96.4347
54725,CHI Operations Inc,55562,Sun River LLC,MN,Lincoln,SU30,OP,Onshore Wind Turbine,WT,IPP Non-CHP,2,1.9,1.9,1.9,2,2001,3,Vestas,V47-660,24,1,213,wind,2016,Hwy 1,Hendricks,56136,44.4289,-96.4358
54725,CHI Operations Inc,55563,Julia Hills LLC,MN,Lincoln,JH30,OP,Onshore Wind Turbine,WT,IPP Non-CHP,2,1.9,1.9,1.9,2,2001,3,Vestas,V47-660,24,1,213,wind,2016,Hwy 1,Hendricks,56136,44.4231,-96.4458
54725,CHI Operations Inc,55564,Jessica Mills LLC,MN,Lincoln,JM30,OP,Onshore Wind Turbine,WT,IPP Non-CHP,2,1.9,1.9,1.9,2,2001,3,Vestas,V47-660,24,1,213,wind,2016,Hwy 1,Hendricks,56136,44.4278,-96.43
54725,CHI Operations Inc,55565,Jack River LLC,MN,Lincoln,JR30,OP,Onshore Wind Turbine,WT,IPP Non-CHP,2,1.9,1.9,1.9,2,2001,3,Vestas,V47-660,24,1,213,wind,2016,Hwy 1,Hendricks,56136,44.4233,-96.4411
54725,CHI Operations Inc,55566,Autumn Hills LLC,MN,Lincoln,AH30,OP,Onshore Wind Turbine,WT,IPP Non-CHP,2,1.9,1.9,1.9,2,2001,3,Vestas,V47-660,24,1,213,wind,2016,Hwy 1,Hendricks,56136,44.4131,-96.4325
54725,CHI Operations Inc,55567,Winters Spawn LLC,MN,Lincoln,WS30,OP,Onshore Wind Turbine,WT,IPP Non-CHP,2,1.9,1.9,1.9,1,2001,3,Vestas,V47-660,24,1,213,wind,2016,Hwy 14,Lake Benton,55149,44.2081,-96.1989
54725,CHI Operations Inc,55568,Twin Lake Hills LLC,MN,Lincoln,TL30,OP,Onshore Wind Turbine,WT,IPP Non-CHP,2,1.9,1.9,1.9,12,2000,3,Vestas,V47-660,24,1,213,wind,2016,Hwy 14,Lake Benton,55149,44.2258,-96.2789
54725,CHI Operations Inc,55569,Spartan Hills LLC,MN,Lincoln,SH30,OP,Onshore Wind Turbine,WT,IPP Non-CHP,2,1.9,1.9,1.9,1,2001,3,Vestas,V47-660,24,1,213,wind,2016,Hwy 14,Lake Benton,55149,44.2358,-96.2383
54725,CHI Operations Inc,55570,Soliloquoy Ridge LLC,MN,Lincoln,SR30,OP,Onshore Wind Turbine,WT,IPP Non-CHP,2,1.9,1.9,1.9,1,2001,3,Vestas,V47-660,24,1,213,wind,2016,Hwy 14,Lake Benton,55149,44.2364,-96.2331
54725,CHI Operations Inc,55571,Ruthton Ridge LLC,MN,Lincoln,RR30,OP,Onshore Wind Turbine,WT,IPP Non-CHP,2,1.9,1.9,1.9,1,2001,3,Vestas,V47-660,24,1,213,wind,2016,Hwy 14,Lake Benton,55149,44.2128,-96.2131
54725,CHI Operations Inc,55572,Hope Creek LLC,MN,Lincoln,HC30,OP,Onshore Wind Turbine,WT,IPP Non-CHP,2,1.9,1.9,1.9,1,2001,3,Vestas,V47-660,24,1,213,wind,2016,Hwy 14,Lake Benton,55149,44.2275,-96.2192
54725,CHI Operations Inc,55573,Hadley Ridge LLC,MN,Lincoln,HR30,OP,Onshore Wind Turbine,WT,IPP Non-CHP,2,1.9,1.9,1.9,12,2000,3,Vestas,V47-660,24,1,213,wind,2016,Hwy 14,Lake Benton,55149,44.2253,-96.235
54725,CHI Operations Inc,55574,Florence Hills LLC,MN,Lincoln,FH30,OP,Onshore Wind Turbine,WT,IPP Non-CHP,2,1.9,1.9,1.9,1,2001,3,Vestas,V47-660,24,1,213,wind,2016,Hwy 14,Lake Benton,55149,44.2297,-96.225
54725,CHI Operations Inc,55576,Agassiz Beach LLC,MN,Clay,AB30,OP,Onshore Wind Turbine,WT,IPP Non-CHP,2,1.9,1.9,1.9,2,2001,3,Vestas,V47-660,24,1,213,wind,2016,Hwy 9,Averill,56536,47.0053,-96.4356
17058,Shell Wind Energy Inc.,55579,Llano Estacado Wind Ranch,TX,Carson,EXIS,OP,Onshore Wind Turbine,WT,IPP Non-CHP,2,80,80,80,12,2001,80,Mitsubishi,MWT-1000,21.3,1,213.2,wind,2016,"300 South Main, P.O. Box 798",White Deer,79097,35.4789,-101.2439
6354,FPL Energy Upton Wind LP,55581,King Mountain Wind Ranch 1,TX,Upton,EXIS,OP,Onshore Wind Turbine,WT,IPP Non-CHP,2,278,278,278,6,2001,214,Siemens,SWT-1.3-62,19,2,203.4,wind,2016,120 E. 5th Street,McCamey,79752,31.2092,-102.2417
14354,PacifiCorp,55607,Foote Creek I,WY,Carbon,GEN1,OP,Onshore Wind Turbine,WT,Electric Utility,1,41.4,41.4,41.4,4,1999,69,Mitsubishi,MWT-450,17,1,131,wind,2016,H.C. 64 Box 404,McFadden,82080,41.6283,-106.2013
2770,Terra-Gen Operating Co LLC,55608,Foote Creek II,WY,Albany,GEN1,OP,Onshore Wind Turbine,WT,IPP Non-CHP,2,1.8,1.8,1.8,6,1999,3,Mitsubishi,MWT-600 (45m),22.4,1,120,wind,2016,HC 64 Box 404,McFadden,82083,41.657539,-106.189183
2770,Terra-Gen Operating Co LLC,55609,Foote Creek III,WY,Albany,GEN1,OP,Onshore Wind Turbine,WT,IPP Non-CHP,2,24.8,24.8,24.8,6,1999,33,Micon,M750-400/100,22.4,1,180,wind,2016,HC64 Box 404,McFadden,82083,41.666469,-106.183278
2770,Terra-Gen Operating Co LLC,55610,Foote Creek IV,WY,Carbon,GEN1,OP,Onshore Wind Turbine,WT,IPP Non-CHP,2,16.8,16.8,16.8,8,2000,28,Mitsubishi,MWT-600 (45m),22.4,1,164,wind,2016,HC 64 Box 404,McFadden,82080,41.6744,-106.1805
19740,AES Wind Generation Inc,55719,Mountain View I&2,CA,Riverside,GEN2,OP,Onshore Wind Turbine,WT,IPP Non-CHP,2,22.2,22.2,22.2,7,2001,37,Mitsubishi,MWT-600 (45m),26.8,1,196.8,wind,2016,19435 Ruppert Street,North Palm Springs,92258,33.9211,-116.5642
19740,AES Wind Generation Inc,55719,Mountain View I&2,CA,Riverside,GENI,OP,Onshore Wind Turbine,WT,IPP Non-CHP,2,44.4,44.4,44.4,6,2001,74,Mitsubishi,MWT-600 (45m),26.8,1,196.8,wind,2016,19435 Ruppert Street,North Palm Springs,92258,33.9211,-116.5642
7531,Gray County Wind Energy LLC,55734,Gray County Wind Energy,KS,Gray,V47,OP,Onshore Wind Turbine,WT,IPP Non-CHP,2,112,112,112,11,2001,170,Vestas,V47-660,22.4,1,213.3,wind,2016,100 W. Mexitli Street,Montezuma,67867,37.613256,-100.378197
59496,Allete Clean Energy,55739,Condon Windpower LLC,OR,Gilliam,GEN1,OP,Onshore Wind Turbine,WT,IPP Non-CHP,2,24.6,24.6,24.6,12,2001,41,Mitsubishi,MWT-600 (47m),17,1,196.8,wind,2016,15981 Highway 206,Condon,97823,45.2766,-120.2794
59496,Allete Clean Energy,55739,Condon Windpower LLC,OR,Gilliam,GEN2,OP,Onshore Wind Turbine,WT,IPP Non-CHP,2,25.2,25.2,25.2,5,2002,42,Mitsubishi,MWT-600 (47m),17,1,196.8,wind,2016,15981 Highway 206,Condon,97823,45.2766,-120.2794
58772,MHI Wind Power,55740,Rock River I LLC,WY,Carbon,GEN1,OP,Onshore Wind Turbine,WT,IPP Non-CHP,2,50,50,50,10,2001,50,Mitsubishi,MWT-1000,12,1,197,wind,2016,HC64 Box 404,McFadden,82083,41.7172,-106.1077
5906,EDF Renewable Services Inc,55741,Ridge Crest Wind Partners,CO,Logan,A1,OP,Onshore Wind Turbine,WT,IPP Non-CHP,2,29.7,29.7,29.7,12,2001,33,NEG-Micon,NM52/900,17.9,3,236.2,wind,2016,502 Main Street,Peetz,80747,40.945911,-103.162028
20847,Wisconsin Electric Power Co,55742,Montfort Wind Energy Center,WI,Iowa,ER15,OP,Onshore Wind Turbine,WT,Electric Utility,1,30,2,8,6,2002,20,GE,1.5 S,19,2,213.2,wind,2016,3145 Anderson Lane,Montfort,53569,42.9625,-90.386667
13866,NWP Indian Mesa Wind Farm LP,55747,NWP Indian Mesa Wind Farm,TX,Pecos,NWP2,OP,Onshore Wind Turbine,WT,IPP Non-CHP,2,82.5,82.5,82.5,5,2001,125,Vestas,V47-660,22.4,1,164,wind,2016,Bar M Ranch,Iraan,79744,30.931467,-102.201433
49880,EDP Renewables North America LLC,55769,Madison Windpower LLC,NY,Madison,MADW,OP,Onshore Wind Turbine,WT,IPP Non-CHP,2,11.5,11.5,11.5,10,2000,7,Vestas,V66-1.65,22,1,220,wind,2016,Stone Road,Madison,13402,42.894722,-75.451666
55728,Bright Light Capital LLC,55782,Wilmont Hills LLC,MN,Nobles,WH01,OP,Onshore Wind Turbine,WT,IPP Non-CHP,2,1.5,1.5,1.5,12,2001,1,NEG-Micon,NM72C/1500,19,2,230,wind,2016,Hwy 91,Wilmont,56155,43.754739,-95.853447
34688,CHI Energy Inc,55790,Fenner Wind,NY,Madison,1,OP,Onshore Wind Turbine,WT,IPP Non-CHP,2,30,30,30,10,2001,20,GE,1.5 SE,24,1,262,wind,2016,5508 Bellinger Rd.,Cazenovia,13035,42.988989,-75.762536
14629,Pecos Wind II LP,55795,Woodward Mountain II,TX,Pecos,01,OP,Onshore Wind Turbine,WT,IPP Non-CHP,2,78,78,78,7,2001,117,Vestas,Vestas V-47,22.4,1,164,wind,2016,6.5 miles South Hwy,Girvin,79740,30.9514,-102.414067
14628,Pecos Wind I LP,55796,Woodward Mountain I,TX,Pecos,01,OP,Onshore Wind Turbine,WT,IPP Non-CHP,2,82,82,82,7,2001,125,Vestas,Vestas V-47,22.4,1,164,wind,2016,6.5 miles South Hwy,Girvin,79740,30.9514,-102.414067
17515,Somerset Windpower LLC,55803,FPL E Somerset Windpower LLC,PA,Somerset,EW,OP,Onshore Wind Turbine,WT,IPP Non-CHP,2,9,9,9,12,2001,6,GE,1.5 S,19,2,213.3,wind,2016,68 Braddock Drive,Ohiopyle,15501,39.979167,-79.012778
13808,Northern Iowa Windpower LLC,55804,Top of Iowa Windfarm,IA,Worth,NM,OP,Onshore Wind Turbine,WT,IPP Non-CHP,2,80,80,80,10,2001,89,NEG-Micon,NM52/900,19,2,236,wind,2016,4119 Evergreen Ave,Joice,50446,43.3833,-93.4167
12562,FPL Energy FPL E Mill Run WIndpower LLC,55805,Mill Run Windpower,PA,Somerset,G1,OP,Onshore Wind Turbine,WT,IPP Non-CHP,2,15,15,15,12,2001,10,GE,1.5 S,19,2,213.3,wind,2016,4309 Kingwood Rd. Ste. 1,Rockwood,15557,39.913408,-79.393644
10046,Kas Brothers Windfarm LLC,55809,Kas Brothers Windfarm,MN,Pipestone,G1,OP,Onshore Wind Turbine,WT,IPP Non-CHP,2,1.5,1.5,1.5,12,2001,2,Micon,M750-400/100,16,2,180,wind,2016,County Road 18,Woodstock,56164,44.0119,-96.1125
8294,Hawkeye Power Partners LLC,55816,Hawkeye Power Partners LLC,IA,Cerro Gordo,48M,OP,Onshore Wind Turbine,WT,IPP Non-CHP,2,42,42,42,4,1999,55,NEG-Micon,NM48/750,19,2,183,wind,2016,1824 200th Street,Garner,50438,43.047222,-93.4775
15399,Avangrid Renewables LLC,55871,Klondike Wind Power,OR,Sherman,Ph 1,OP,Onshore Wind Turbine,WT,IPP Non-CHP,2,24.5,24,24,1,2002,16,GE,1.5 SLE,14.5,2,262,wind,2016,98536 Klondike Lane,Wasco,97065,45.5563,-120.5507
1361,Bay Windpower LLC,55944,Bay Windpower I,MI,Cheboygan,BAY,OP,Onshore Wind Turbine,WT,IPP Non-CHP,2,1.8,1.8,1.8,12,2001,2,NEG-Micon,NM52/900,15.7,3,237,wind,2016,Trails End Road,Mackinaw City,49701,45.7644,-84.7381
19171,Trent Wind Farm LP,55968,Trent Wind Farm LP,TX,Nolan,WTG1,OP,Onshore Wind Turbine,WT,IPP Non-CHP,2,150,150,150,7,2001,100,GE,1.5 S,18,2,212.2,wind,2016,1423 CR 131,Trent,79561,32.4301,-100.235652
57170,"EDF Renewable Asset Holdings, Inc.",55980,Champepaden Wind Power,MN,Murray,1,OP,Onshore Wind Turbine,WT,IPP Non-CHP,2,2,2,2,12,2001,3,Vestas,V47-660,22.4,1,213.2,wind,2016,575 41st Street,Chandler,56122,43.899722,-95.950556
57170,"EDF Renewable Asset Holdings, Inc.",55981,Moulton Wind Power,MN,Murray,1,OP,Onshore Wind Turbine,WT,IPP Non-CHP,2,2,2,2,12,2001,3,Vestas,V47-660,22.4,1,213.2,wind,2016,475 State Hwy 91,Chandler,56123,43.9204,-95.955885
6870,"Backbone Mountain Windpower, LLC",55986,Mountaineer Wind Energy Center,WV,Tucker,WT1,OP,Onshore Wind Turbine,WT,IPP Non-CHP,2,66,66,66,12,2002,44,NEG-Micon,NM72C/1500,19,2,229.7,wind,2016,22752 Seneca Trail,Thomas,26292,39.1828,-79.5372
6607,FPL Energy Vansycle LLC,55989,FPL Energy Vansycle LLC (OR),OR,Umatilla,V-47,OP,Onshore Wind Turbine,WT,IPP Non-CHP,2,122.8,122.8,122.8,12,2001,186,Vestas,V47-660,22.4,1,164,wind,2016,356 Touchet Gardena Road,Touchet,97835,46.01279,-118.816246
49796,Desert Sky Wind Farm LP,55992,Desert Sky,TX,Pecos,1,OP,Onshore Wind Turbine,WT,IPP Non-CHP,2,160.5,160.5,160.5,1,2002,107,GE,1.5 S,16.5,2,212.2,wind,2016,"PO Box 518, 8135 E Hwy 190",Iraan,79744,30.9178,-102.0867
1307,Basin Electric Power Coop,55995,Minot Wind Project,ND,Ward,MWP,OP,Onshore Wind Turbine,WT,Electric Utility,1,2.6,2.6,2.6,1,2003,2,Nordex,N60/1300,17.9,1,196.9,wind,2016,Hwy 83 & County 20 205 Ave S E,Minot,58701,48.021271,-101.280517
1307,Basin Electric Power Coop,55995,Minot Wind Project,ND,Ward,MWP2,OP,Onshore Wind Turbine,WT,Electric Utility,1,4.5,4.5,4.5,12,2009,3,GE,1.5 SLE,17.9,2,262.5,wind,2016,Hwy 83 & County 20 205 Ave S E,Minot,58701,48.021271,-101.280517
20208,Waymart Wind Farm,56001,Waymart Wind,PA,Wayne,GE15,OP,Onshore Wind Turbine,WT,IPP Non-CHP,2,64.5,64.5,64.5,10,2003,43,GE,1.5 S,19,2,213.3,wind,2016,1200 Flat Rock Rd,Forest City,18472,41.5533,-75.4542
60580,"Community Renewables, LLC",56002,Minwind,MN,Rock,1,OP,Onshore Wind Turbine,WT,IPP Non-CHP,2,3.8,3.8,3.8,10,2002,4,NEG-Micon,NM54/950,15.6,2,210,wind,2016,41st Street and 80th Avenue,Luverne,56156,43.5564,-96.303611
6850,"FPL Energy Hancock County Wind, LLC",56010,Hancock County Wind Energy Center,IA,Hancock,V-47,OP,Onshore Wind Turbine,WT,IPP Non-CHP,2,98,98,98,12,2002,148,Vestas,V47-660,22.4,1,213.3,wind,2016,1824 200th Street,Garner,50438,43.052758,-93.629956
17058,Shell Wind Energy Inc.,56011,Cabazon Wind Partners,CA,Riverside,V-47,OP,Onshore Wind Turbine,WT,IPP Non-CHP,2,41,41,41,10,2002,62,Vestas,V47-660,23.4,1,213.2,wind,2016,14101 Rusmore Ave,Cabazon,56011,33.9172,-116.735
17058,Shell Wind Energy Inc.,56012,Whitewater Hill Wind Partners,CA,Riverside,1,OP,Onshore Wind Turbine,WT,IPP Non-CHP,2,61.5,61.5,61.5,10,2002,41,GE,1.5 S,20.2,2,213.2,wind,2016,63-665 19th Ave,North Palm Springs,92258,33.925,-116.617778
6865,FPL Energy Meyersdale Windpower LLC,56052,Meyersdale Windpower,PA,Somerset,GE15,OP,Onshore Wind Turbine,WT,IPP Non-CHP,2,30,30,30,12,2003,20,NEG-Micon,NM72C/1500,19,2,229.7,wind,2016,1773 Sandspring Rd,Meyersdale,15552,39.790739,-79.002047
6985,Garwin McNeilus,56054,G McNeilus Wind Farm Dodge Center,MN,Dodge,GM1,OP,Onshore Wind Turbine,WT,IPP Non-CHP,2,32,32,32,9,2002,34,NEG-Micon,NM54/950,14,2,236,wind,2016,65742 State Highway 56,Dodge Center,55927,43.978486,-92.851078
6985,Garwin McNeilus,56054,G McNeilus Wind Farm Dodge Center,MN,Dodge,GM2,OP,Onshore Wind Turbine,WT,IPP Non-CHP,2,8,8,8,5,2003,5,NEG-Micon,NM72C/1500,14,2,230,wind,2016,65742 State Highway 56,Dodge Center,55927,43.978486,-92.851078
6985,Garwin McNeilus,56054,G McNeilus Wind Farm Dodge Center,MN,Dodge,GM3,OP,Onshore Wind Turbine,WT,IPP Non-CHP,2,3,3,3,5,2004,2,NEG-Micon,NM82/1650,14,2,230,wind,2016,65742 State Highway 56,Dodge Center,55927,43.978486,-92.851078
8565,"FPLE High Winds, LLC",56075,High Winds LLC,CA,Solano,1,OP,Onshore Wind Turbine,WT,IPP Non-CHP,2,145.8,145.8,145.8,7,2003,81,Vestas,V80-1.8,22.4,1,213.3,wind,2016,6700 Birds Landing Rd.,Birds Landing,94512,38.1381,-121.8053
8565,"FPLE High Winds, LLC",56075,High Winds LLC,CA,Solano,2,OP,Onshore Wind Turbine,WT,IPP Non-CHP,2,16.2,16.2,16.2,12,2003,9,Vestas,V80-1.8,22.4,1,213.3,wind,2016,6700 Birds Landing Rd.,Birds Landing,94512,38.1381,-121.8053
1881,Blue Canyon Windpower LLC,56081,Blue Canyon Windpower,OK,Comanche,EW,OP,Onshore Wind Turbine,WT,IPP Non-CHP,2,85,74.3,74.3,12,2003,45,Vestas,V82-1.65,19,2,262,wind,2016,3109 State Hwy 19,Carnegie,73015,34.850781,-98.577311
34721,FPL Energy South Dakota Wind LLC,56092,South Dakota Wind Energy Cente,SD,Hyde,GE15,OP,Onshore Wind Turbine,WT,IPP Non-CHP,2,40.5,40.5,40.5,10,2003,27,GE,1.5 S,19,2,213.3,wind,2016,33716 207th St,Highmore,57345,44.5492,-99.5
58528,NextEra Energy Operating Services LLC,56093,TransAlta Wyoming Wind,WY,Uinta,GE15,OP,Onshore Wind Turbine,WT,IPP Non-CHP,2,144,144,144,12,2003,80,Vestas,V80-1.8,20,2,240,wind,2016,3287 Divide Rd,Evanston,82930,41.2874,-110.5556
34719,FPL Energy Oklahoma Wind LLC,56094,Oklahoma Wind Energy Center,OK,Woodward,GE15,OP,Onshore Wind Turbine,WT,IPP Non-CHP,2,51,51,51,10,2003,34,GE,1.5 S,19,2,213.3,wind,2016,3/8 mi W of Intrscn EW30/NS208,Woodward,73801,36.603967,-99.340047
34719,FPL Energy Oklahoma Wind LLC,56094,Oklahoma Wind Energy Center,OK,Woodward,GSOO,OP,Onshore Wind Turbine,WT,IPP Non-CHP,2,51,51,51,10,2003,34,GE,1.5 S,19,2,213.3,wind,2016,3/8 mi W of Intrscn EW30/NS208,Woodward,73801,36.603967,-99.340047
34717,FPL Energy New Mexico Wind LLC,56097,New Mexico Wind Energy Center,NM,Quay,GE15,OP,Onshore Wind Turbine,WT,IPP Non-CHP,2,204,204,204,9,2003,136,GE,1.5 S,19,2,213.3,wind,2016,1561 State Highway 252,House,88121,34.63566,-104.04733
34723,FPL Energy North Dakota Wind LLC,56099,FPL Energy North Dakota Wind I/II,ND,LaMoure,GE15,OP,Onshore Wind Turbine,WT,IPP Non-CHP,2,61.5,61.5,61.5,10,2003,41,GE,1.5 S,19,2,213.3,wind,2016,"7305 74th Ave., SE",Edgeley,58433,46.327169,-98.898356
21352,Municipal Energy Agency of NE,56106,MEAN Wind Project,NE,Kimball,1,OP,Onshore Wind Turbine,WT,Electric Utility,1,10.5,10.5,10.5,10,2002,7,NEG-Micon,NM72C/1500,18,2,230,wind,2016,Northwest of Kimball,Kimball,69145,41.2736,-103.6983
17058,Shell Wind Energy Inc.,56111,Brazos Wind Farm,TX,Scurry,GEN1,OP,Onshore Wind Turbine,WT,IPP Non-CHP,2,160,160,160,12,2003,160,Mitsubishi,MWT-1000A,17.4,2,213.2,wind,2016,968 Main Street,Fluvanna,79517,32.94793,-101.147784
15399,Avangrid Renewables LLC,56112,Mountain View III,CA,Riverside,V47,OP,Onshore Wind Turbine,WT,IPP Non-CHP,2,22.4,22.4,22.4,12,2003,34,Vestas,V47-660,19.2,1,164,wind,2016,19020 Indian Avenue,North Palm Springs,92258,33.9141,-116.5914
60558,"Rock County Energy Center, LLC",56123,Minwind 3-9,MN,Rock,1,OP,Onshore Wind Turbine,WT,IPP Non-CHP,2,11.5,11.6,11.6,12,2004,7,Vestas,V82-1.65,15.6,2,210,wind,2016,1056 40th Ave.,Beaver Creek,56116,43.6383,-96.391944
59496,Allete Clean Energy,56142,"Chanarambie Power Partners, LLC",MN,Murray,WND1,OP,Onshore Wind Turbine,WT,IPP Non-CHP,2,85.5,85.5,85.5,12,2003,57,GE,1.5 S,19,2,213,wind,2016,215 111th St.,Lake Wilson,56151,44.011,-96.0446
59496,Allete Clean Energy,56153,Viking Wind Partners,MN,Murray,1,OP,Onshore Wind Turbine,WT,IPP Non-CHP,2,12,12,12,12,2003,8,GE,1.5 S,19,2,262.5,wind,2016,215 111th Street,Lake Wilson,56151,43.983462,-96.011809
50123,"Leeward Asset Management, LLC",56160,"Mendota Hills, LLC",IL,Lee,GEN1,OP,Onshore Wind Turbine,WT,IPP Non-CHP,2,50.4,50.4,50.4,11,2003,63,Gamesa,G52-850,19,1,213,wind,2016,823 Bingham Road,Paw Paw,60553,41.7194,-89.0492
13337,Nebraska Public Power District,56162,Ainsworth Wind,NE,Brown,1,OP,Onshore Wind Turbine,WT,Electric Utility,1,59.4,59.4,59.4,10,2005,36,Vestas,V82-1.65,14.5,2,229.7,wind,2016,Highway 7,Ainsworth,69210,42.4489,-99.8917
15399,Avangrid Renewables LLC,56172,Flying Cloud Power Partners LLC,IA,Dickinson,FC,OP,Onshore Wind Turbine,WT,IPP Non-CHP,2,43.5,43.5,43.5,12,2003,29,GE,1.5 SLE,16,2,262,wind,2016,1574 170th Street,Lake Park,51347,43.3897,-95.2997
15399,Avangrid Renewables LLC,56173,Colorado Green Holdings LLC,CO,Prowers,CG,OP,Onshore Wind Turbine,WT,IPP Non-CHP,2,162,162,162,12,2003,108,GE,1.5 SLE,16.2,2,262,wind,2016,8501 County Road E,Lamar,81052,37.7033,-102.6231
15399,Avangrid Renewables LLC,56174,Moraine Wind LLC,MN,Pipestone,MOR,OP,Onshore Wind Turbine,WT,IPP Non-CHP,2,51,51,51,12,2003,34,GE,1.5 SLE,15.5,2,262,wind,2016,4 151th Street,Woodstock,56186,44.0667,-96.0667
49844,Eurus Combine Hills I LLC,56195,Combine Hills I,OR,Umatilla,001,OP,Onshore Wind Turbine,WT,IPP Non-CHP,2,41,41,41,12,2003,41,Mitsubishi,MWT-1000A,19,2,180,wind,2016,84700 White Reservoir Road,Milton-Freewater,97862,45.943,-118.591
59883,NRG Energy Gas & Wind Holdings Inc,56199,TG Windfarm LLC,MN,Pipestone,1,OP,Onshore Wind Turbine,WT,IPP Non-CHP,2,2,2,2,11,2003,2,Suzlon,S64-950,17,3,213,wind,2016,966 120th Ave,Pipestone,56164,43.9897,-96.2236
59883,NRG Energy Gas & Wind Holdings Inc,56200,CG Windfarm LLC,MN,Pipestone,I,OP,Onshore Wind Turbine,WT,IPP Non-CHP,2,2,2,2,12,2003,2,Suzlon,S64-950,17,3,213,wind,2016,996 120th Avenue,Woodstock,56186,43.9931,-96.2186
59883,NRG Energy Gas & Wind Holdings Inc,56201,Bisson Windfarm LLC,MN,Pipestone,I,OP,Onshore Wind Turbine,WT,IPP Non-CHP,2,2,2,2,10,2003,2,Suzlon,S64-950,17,3,213,wind,2016,906 120th Avenue,Pipestone,56164,43.984444,-96.219444
49867,Tofteland Windfarm LLC,56202,Tofteland Windfarm LLC,MN,Pipestone,I,OP,Onshore Wind Turbine,WT,IPP Non-CHP,2,2,2,2,10,2003,2,Suzlon,S64-950,19,2,213,wind,2016,936 120th Avenue,Pipestone,56164,43.980278,-96.223333
59883,NRG Energy Gas & Wind Holdings Inc,56203,Westridge Windfarm LLC,MN,Pipestone,1,OP,Onshore Wind Turbine,WT,IPP Non-CHP,2,2,2,2,11,2003,2,Suzlon,S64-950,17,3,213,wind,2016,966 12th Ave,Woodstock,56164,43.988611,-96.215556
49869,Fey Windfarm LLC,56204,Fey Windfarm LLC,MN,Pipestone,1,OP,Onshore Wind Turbine,WT,IPP Non-CHP,2,2,2,2,9,2003,2,Suzlon,S64-950,19,2,213,wind,2016,1959 131th Street,Woodstock,56186,44.0364,-96.0736
49870,Windcurrent Farms LLC,56205,Windcurrent Farms LLC,MN,Pipestone,1,OP,Onshore Wind Turbine,WT,IPP Non-CHP,2,2,2,2,9,2003,2,Suzlon,S64-950,19,2,213,wind,2016,1928 121th Street,Woodstock,56186,44.0236,-96.0789
59883,NRG Energy Gas & Wind Holdings Inc,56206,K-Brink Windfarm LLC,MN,Pipestone,1,OP,Onshore Wind Turbine,WT,IPP Non-CHP,2,2,2,2,2,2003,2,Suzlon,S64-950,17,3,213,wind,2016,1731 121th Street,Woodstock,56186,44.0197,-96.1183
56800,Brewster,56207,DL Windy Acres LLC,MN,Jackson,1,OP,Onshore Wind Turbine,WT,IPP Non-CHP,2,2,2,2,12,2003,2,Suzlon,S64-1250,17.8,2,213.3,wind,2016,80442 350th Avenue,Brewster,56119,43.651389,-95.368611
56800,Brewster,56208,S&P Windfarm LLC,MN,Jackson,1,OP,Onshore Wind Turbine,WT,IPP Non-CHP,2,2,2,2,12,2003,2,Suzlon,S64-1250,17.8,2,213.3,wind,2016,80441 350th Avenue,Brewster,56119,43.651389,-95.3825
59883,NRG Energy Gas & Wind Holdings Inc,56209,Boeve Windfarm LLC,MN,Pipestone,1,OP,Onshore Wind Turbine,WT,IPP Non-CHP,2,2,2,2,8,2003,2,Suzlon,S64-950,17,3,213,wind,2016,1857 141st Street,Woodstock,56186,44.0508,-96.0933
56800,Brewster,56210,B&K Energy Systems LLC,MN,Jackson,1,OP,Onshore Wind Turbine,WT,IPP Non-CHP,2,2,2,2,12,2003,2,Suzlon,S64-1250,17.8,2,213.3,wind,2016,80442 350th Avenue,Brewster,56119,43.651389,-95.3755
50123,"Leeward Asset Management, LLC",56211,Sweetwater Wind  1 LLC,TX,Nolan,SW1,OP,Onshore Wind Turbine,WT,IPP Non-CHP,2,37.5,37.5,37.5,12,2003,25,GE,1.5 S,19,2,212.2,wind,2016,7051 Hwy 70,Sweetwater,79556,32.3606,-100.3389
50123,"Leeward Asset Management, LLC",56212,Sweetwater Wind 2 LLC,TX,Nolan,SW2,OP,Onshore Wind Turbine,WT,IPP Non-CHP,2,91.5,91.5,91.5,2,2005,61,GE,1.5 SLE,19,2,262,wind,2016,Nolan,Sweetwater,79556,32.3472,-100.3703
57202,E&E Enterprises LLC,56215,Allendorf,IA,Osceola,A1,OP,Onshore Wind Turbine,WT,IPP Non-CHP,2,1.2,1.4,1.4,10,1998,4,Gamesa,G80-2.0,18,1,240,wind,2016,U S Highway 59,Allendorf,51354,43.4,-95.6333
49903,Aeolus Wind LLC,56225,Aeolus Wind Facility,TX,Hansford,V90,OP,Onshore Wind Turbine,WT,IPP Non-CHP,2,3,3,3,12,2003,1,Vestas,V90-3.0,20,1,262.5,wind,2016,14899 County Rd 17,Spearman,79081,36.4725,-101.3278
40577,"American Mun Power-Ohio, Inc",56226,Bowling Green Wind,OH,Wood,1,OP,Onshore Wind Turbine,WT,Electric Utility,1,1.8,1.8,1.8,12,2004,1,Vestas,V80-1.8,14.9,1,255.9,wind,2016,Rt 6 W of Interstate 75,Bowling Green,43402,41.3786,-83.7383
40577,"American Mun Power-Ohio, Inc",56226,Bowling Green Wind,OH,Wood,2,OP,Onshore Wind Turbine,WT,Electric Utility,1,1.8,1.8,1.8,10,2003,1,Vestas,V80-1.8,15,1,255.9,wind,2016,Rt 6 W of Interstate 75,Bowling Green,43402,41.3786,-83.7383
40577,"American Mun Power-Ohio, Inc",56226,Bowling Green Wind,OH,Wood,3,OP,Onshore Wind Turbine,WT,Electric Utility,1,1.8,1.8,1.8,10,2003,1,Vestas,V80-1.8,14.9,1,255.9,wind,2016,Rt 6 W of Interstate 75,Bowling Green,43402,41.3786,-83.7383
40577,"American Mun Power-Ohio, Inc",56226,Bowling Green Wind,OH,Wood,4,OP,Onshore Wind Turbine,WT,Electric Utility,1,1.8,1.8,1.8,11,2004,1,Vestas,V80-1.8,15.4,1,255.9,wind,2016,Rt 6 W of Interstate 75,Bowling Green,43402,41.3786,-83.7383
19740,AES Wind Generation Inc,56240,Buffalo Gap Wind Farm,TX,Taylor,1,OP,Onshore Wind Turbine,WT,IPP Non-CHP,2,120.6,120.6,120.6,4,2006,67,Vestas,V80-1.8,17,2,196.8,wind,2016,10718 FM89,Merkel,79536,32.311556,-100.061589
12341,MidAmerican Energy Co,56251,Intrepid,IA,Buena Vista,INWF,OP,Onshore Wind Turbine,WT,Electric Utility,1,160.5,160.5,160.5,12,2004,107,GE,1.5-82.5,16.8,3,213,wind,2016,506 West 2nd,Schaller,51053,42.5539,-95.3283
12341,MidAmerican Energy Co,56251,Intrepid,IA,Buena Vista,INWF2,OP,Onshore Wind Turbine,WT,Electric Utility,1,15,15,15,12,2005,15,GE,1.5 S,16.8,3,213,wind,2016,506 West 2nd,Schaller,51053,42.5539,-95.3283
12341,MidAmerican Energy Co,56252,Century,IA,Hamilton,CWF,OP,Onshore Wind Turbine,WT,Electric Utility,1,185,150,150,9,2005,127,GE,1.5-82.5,16.8,3,213,wind,2016,301 Commercial St,Blairsburg,50034,42.5644,-93.6369
12341,MidAmerican Energy Co,56252,Century,IA,Hamilton,CWF2,OP,Onshore Wind Turbine,WT,Electric Utility,1,35,35,35,12,2007,30,Mitsubishi,MWT-1000A,16.8,3,226,wind,2016,301 Commercial St,Blairsburg,50034,42.5644,-93.6369
12341,MidAmerican Energy Co,56252,Century,IA,Hamilton,CWF3,OP,Onshore Wind Turbine,WT,Electric Utility,1,15,15,15,12,2007,13,GE,1.5 S,16.8,3,226,wind,2016,301 Commercial St,Blairsburg,50034,42.5644,-93.6369
15500,Puget Sound Energy Inc,56255,Hopkins Ridge Wind,WA,Columbia,1,OP,Onshore Wind Turbine,WT,Electric Utility,1,149.4,149.4,149.4,11,2005,83,Vestas,V80-1.8,16.5,2,219.8,wind,2016,431 Gwinn Road,Dayton,99328,46.4211,-117.8331
15500,Puget Sound Energy Inc,56255,Hopkins Ridge Wind,WA,Columbia,2,OP,Onshore Wind Turbine,WT,Electric Utility,1,7.2,7.2,7.2,8,2008,4,Vestas,V80-1.8,16.5,2,219.8,wind,2016,431 Gwinn Road,Dayton,99328,46.4211,-117.8331
50012,"FPL Energy Callahan Wind, LLC",56270,Callahan Divide Wind Energy Center,TX,Taylor,1,OP,Onshore Wind Turbine,WT,IPP Non-CHP,2,114,114,114,3,2005,76,GE,1.5 SLE,19,2,262.5,wind,2016,1209 F CR 618,Tusocola,79562,32.303889,-100.021667
50013,Diablo Wind LLC,56271,Diablo Wind LLC,CA,Alameda,VEST,OP,Onshore Wind Turbine,WT,IPP Non-CHP,2,18,18,18,12,2004,31,Vestas,V47-660,16.6,1,164,wind,2016,435 Mountain Vista Parkway,Livermore,94551,37.763653,-121.614392
50014,"FPL Energy Weatherford, LLC",56273,Weatherford Wind Energy Center,OK,Custer,1,OP,Onshore Wind Turbine,WT,IPP Non-CHP,2,106.5,106.5,106.5,4,2005,71,GE,1.5 SLE,19,2,262.5,wind,2016,3070 West service road,Weatherford,73906,35.5094,-98.7346
50014,"FPL Energy Weatherford, LLC",56273,Weatherford Wind Energy Center,OK,Custer,2,OP,Onshore Wind Turbine,WT,IPP Non-CHP,2,40.5,40.5,40.5,12,2005,27,GE,1.5 SLE,19,2,262.5,wind,2016,3070 West service road,Weatherford,73906,35.5094,-98.7346
56899,Wind Stream Operations LLC,56275,Helzel & Schwarzhoff 86,CA,Kern,WGNS,OP,Onshore Wind Turbine,WT,IPP Non-CHP,2,2.4,2.4,2.4,12,1986,27,Vestas,V17-90,12,1,80,wind,2016,13000 Jameson Road,Tehachapi,93561,35.0925,-118.3952
56899,Wind Stream Operations LLC,56276,ZCO,CA,Kern,WGNS,OP,Onshore Wind Turbine,WT,IPP Non-CHP,2,1.6,1.6,1.6,12,1985,10,Vestas,V15,16.5,1,80,wind,2016,13000 Jameson Road,Tehachapi,93561,35.0772,-118.3811
54684,"Flat Rock Windpower, LLC",56290,Maple Ridge Wind Farm,NY,Lewis,1,OP,Onshore Wind Turbine,WT,IPP Non-CHP,2,137,137,137,12,2005,83,Vestas,V82-1.65,19,2,262,wind,2016,6972 Eagle Factory Road,Lowville,13367,43.7853,-75.5753
54684,"Flat Rock Windpower, LLC",56290,Maple Ridge Wind Farm,NY,Lewis,1A,OP,Onshore Wind Turbine,WT,IPP Non-CHP,2,61,61,61,1,2006,37,Vestas,V82-1.65,19,2,262,wind,2016,6972 Eagle Factory Road,Lowville,13367,43.7853,-75.5753
54684,"Flat Rock Windpower, LLC",56290,Maple Ridge Wind Farm,NY,Lewis,2,OP,Onshore Wind Turbine,WT,IPP Non-CHP,2,33,33,33,6,2006,20,Vestas,V82-1.65,19,2,262,wind,2016,6972 Eagle Factory Road,Lowville,13367,43.7853,-75.5753
54684,"Flat Rock Windpower, LLC",56290,Maple Ridge Wind Farm,NY,Lewis,3,OP,Onshore Wind Turbine,WT,IPP Non-CHP,2,91,91,91,12,2006,55,Vestas,V82-1.65,19,2,262,wind,2016,6972 Eagle Factory Road,Lowville,13367,43.7853,-75.5753
50063,FPL Energy Horse Hollow LLC,56291,Horse Hollow Wind Energy Center,TX,Taylor,1,OP,Onshore Wind Turbine,WT,IPP Non-CHP,2,213,213,213,12,2005,142,GE,1.5 SLE,22,2,279,wind,2016,14064 B Hwy 277 S,Wingate,79566,32.214024,-100.05712
50063,FPL Energy Horse Hollow LLC,56291,Horse Hollow Wind Energy Center,TX,Taylor,2,OP,Onshore Wind Turbine,WT,IPP Non-CHP,2,223.5,223.5,223.5,6,2006,150,Siemens,SWT-2.3-93,22,2,262.4,wind,2016,14064 B Hwy 277 S,Wingate,79566,32.214024,-100.05712
50063,FPL Energy Horse Hollow LLC,56291,Horse Hollow Wind Energy Center,TX,Taylor,3,OP,Onshore Wind Turbine,WT,IPP Non-CHP,2,299,299,299,6,2006,130,GE,1.5 SLE,22,2,279,wind,2016,14064 B Hwy 277 S,Wingate,79566,32.214024,-100.05712
50123,"Leeward Asset Management, LLC",56293,Caprock Wind Farm,NM,Quay,1,OP,Onshore Wind Turbine,WT,IPP Non-CHP,2,60,60,60,12,2004,60,Mitsubishi,MWT-1000,18.5,1,226,wind,2016,1414A State Hwy 469,San Jon,88434,34.980556,-103.353889
50123,"Leeward Asset Management, LLC",56293,Caprock Wind Farm,NM,Quay,2,OP,Onshore Wind Turbine,WT,IPP Non-CHP,2,20,20,20,5,2005,20,Mitsubishi,MWT-1000,14,1,226,wind,2016,1414A State Hwy 469,San Jon,88434,34.980556,-103.353889
50123,"Leeward Asset Management, LLC",56295,Kumeyaay Wind,CA,San Diego,1,OP,Onshore Wind Turbine,WT,IPP Non-CHP,2,50,50,50,12,2005,25,Gamesa,G87-2.0,19,2,223,wind,2016,"North of I-8, West of Campo Cr",Campo,91906,32.705556,-116.3425
15399,Avangrid Renewables LLC,56296,Trimont Area Wind Farm,MN,Martin,1,OP,Onshore Wind Turbine,WT,IPP Non-CHP,2,100.5,100.5,100.5,11,2005,67,GE,1.5 SLE,15,2,262,wind,2016,231 220th Street,Trimont,56172,43.7938,-94.8499
50123,"Leeward Asset Management, LLC",56297,Crescent Ridge,IL,Bureau,1,OP,Onshore Wind Turbine,WT,IPP Non-CHP,2,53,53,53,12,2005,33,NEG-Micon,NM82/1650,21,2,256,wind,2016,6250 1475 East St,Tiskilwa,61368,41.25,-89.5708
50123,"Leeward Asset Management, LLC",56299,Wind Park Bear Creek,PA,Luzerne,1,OP,Onshore Wind Turbine,WT,IPP Non-CHP,2,24,24,24,3,2006,12,Gamesa,G87-2.0,19,2,256,wind,2016,10 miles SE of Wilkes-Barre PA,Bear Creek,18702,41.235278,-75.753056
50123,"Leeward Asset Management, LLC",56300,Jersey-Atlantic Wind Farm,NJ,Atlantic,1,OP,Onshore Wind Turbine,WT,IPP Non-CHP,2,7.5,7.5,7.5,3,2006,5,GE,1.5 SLE,19,2,262,wind,2016,1801 Absecon Blvd.,Atlantic City,8401,39.382222,-74.4475
49893,Invenergy Services LLC,56301,Wolverine Creek,ID,Bonneville,1,OP,Onshore Wind Turbine,WT,IPP Non-CHP,2,64.5,64.5,64.5,2,2006,43,GE,1.5 SLE,15.8,2,263,wind,2016,729 Bone Road,Idaho Falls,83401,43.4195,-111.8294
57170,"EDF Renewable Asset Holdings, Inc.",56302,Oasis Wind,CA,Kern,1,OP,Onshore Wind Turbine,WT,IPP Non-CHP,2,60,60,60,12,2004,60,Mitsubishi,MWT-1000,19,1,196.9,wind,2016,7021 Oak Creek Road,Mojave,93501,35.06094,-118.292406
15399,Avangrid Renewables LLC,56303,Elk River Wind,KS,Butler,1,OP,Onshore Wind Turbine,WT,IPP Non-CHP,2,150,150,150,12,2005,100,GE,1.5 SLE,18,2,262,wind,2016,14980 SE 190th,Beaumont,67072,37.5797,-96.5503
59883,NRG Energy Gas & Wind Holdings Inc,56304,San Juan Mesa Wind Project LLC,NM,Roosevelt,1,OP,Onshore Wind Turbine,WT,IPP Non-CHP,2,120,120,120,12,2005,120,Mitsubishi,MWT-1000A,19,2,226,wind,2016,4388 S. Roosevelt Road 22,Elida,88116,33.9716,-103.8604
56769,Consolidated Edison Development Inc.,56307,Adams Wind Farm,MN,Mower,1,OP,Onshore Wind Turbine,WT,IPP Non-CHP,2,14,14,14,9,2003,9,NEG-Micon,NM72C/1500,14,2,230,wind,2016,12933 660 Ave,Adams,55909,43.554778,-92.724139
56769,Consolidated Edison Development Inc.,56307,Adams Wind Farm,MN,Mower,2,OP,Onshore Wind Turbine,WT,IPP Non-CHP,2,10,10,10,7,2004,6,NEG-Micon,NM82/1650,14,2,230,wind,2016,12933 660 Ave,Adams,55909,43.554778,-92.724139
54845,Colorado & Santa Fe Energy Co,56308,Fossil Gulch,ID,Gooding,1,OP,Onshore Wind Turbine,WT,IPP Non-CHP,2,10.5,10.5,10.5,2,2005,7,GE,1.5 SLE,22,3,262.4,wind,2016,Near town of Hagerman,Hagerman,83332,42.858056,-114.949444
50123,"Leeward Asset Management, LLC",56311,Sweetwater Wind 3 LLC,TX,Nolan,SW3,OP,Onshore Wind Turbine,WT,IPP Non-CHP,2,135,135,135,12,2005,90,GE,1.5 SLE,19,2,262,wind,2016,10 miles South Hwy 70,Sweetwater,79556,32.290833,-100.4219
49893,Invenergy Services LLC,56320,Spring Canyon,CO,Logan,1,OP,Onshore Wind Turbine,WT,IPP Non-CHP,2,60,60,60,2,2006,40,GE,1.5 SLE,19.5,2,263,wind,2016,28191 CR 74,Peetz,80747,40.983,-102.9647
15500,Puget Sound Energy Inc,56322,Wild Horse,WA,Kittitas,1,OP,Onshore Wind Turbine,WT,Electric Utility,1,228.6,228.6,228.6,12,2006,127,Vestas,V80-1.8,18,2,219.8,wind,2016,25901 Vantage Hwy,Ellensburg,98926,47.036269,-120.206494
15500,Puget Sound Energy Inc,56322,Wild Horse,WA,Kittitas,WH2,OP,Onshore Wind Turbine,WT,Electric Utility,1,44,44,44,11,2009,22,Vestas,V80-2.0,15.4,1,219.8,wind,2016,25901 Vantage Hwy,Ellensburg,98926,47.036269,-120.206494
54707,Blue Canyon Windpower II LLC,56335,Blue Canyon Windpower II,OK,Comanche,EW2,OP,Onshore Wind Turbine,WT,IPP Non-CHP,2,151,151,151,12,2005,84,Vestas,V80-1.8,16.1,2,262,wind,2016,3109 State Hwy 19,Carnegie,73015,34.8661,-98.6056
50123,"Leeward Asset Management, LLC",56336,Aragonne Wind LLC,NM,Guadalupe,1,OP,Onshore Wind Turbine,WT,IPP Non-CHP,2,90,90,90,12,2006,90,Mitsubishi,MWT-1000,17.3,1,226,wind,2016,1837 Muniz Road,Santa Rosa,88435,34.8147,-105.0108
50123,"Leeward Asset Management, LLC",56337,Sweetwater Wind 4 LLC,TX,Nolan,SW4,OP,Onshore Wind Turbine,WT,IPP Non-CHP,2,241,241,241,5,2007,181,Mitsubishi,MWT-1000,16.5,1,230,wind,2016,7900 FM 608,Roscoe,79545,32.3122,-100.5303
54709,High Trail Wind Farm LLC,56338,High Trail Wind Farm LLC,IL,McLean,1,OP,Onshore Wind Turbine,WT,IPP Non-CHP,2,198,198,198,3,2007,120,Vestas,V82-1.65,19,2,262,wind,2016,13682N 2900 East Road,Ellsworth,61737,40.4792,-88.7989
20856,Wisconsin Power & Light Co,56347,Cedar Ridge,WI,Fond Du Lac,1,OP,Onshore Wind Turbine,WT,Electric Utility,1,67.7,67.7,67.7,12,2008,41,Vestas,V82-1.65,15,2,262,wind,2016,W3473 Highway 45,Eden,53019,43.692647,-88.329742
10000,Kansas City Power & Light Co,56351,Spearville,KS,Ford,1,OP,Onshore Wind Turbine,WT,Electric Utility,1,100.5,100.5,100.5,9,2006,67,GE,1.5 SLE,19,2,265,wind,2016,10311 126 RD,Ford,67876,37.8641,-99.7528
10000,Kansas City Power & Light Co,56351,Spearville,KS,Ford,2,OP,Onshore Wind Turbine,WT,Electric Utility,1,48,48,48,12,2010,32,GE,1.5 SLE,19,2,265,wind,2016,10311 126 RD,Ford,67876,37.8641,-99.7528
9417,Interstate Power and Light Co,56355,Whispering Willow Wind Farm - East,IA,Franklin,1,OP,Onshore Wind Turbine,WT,Electric Utility,1,199.7,199.7,199.7,12,2009,121,Vestas,V82-1.65,17,2,262,wind,2016,1598 70th Street,Iowa Falls,50126,42.630513,-93.206389
54717,FPL Energy Burleigh County Wind LLC,56357,FPL Energy Burleigh County Wind,ND,Burleigh,GE,OP,Onshore Wind Turbine,WT,IPP Non-CHP,2,18,18,18,2,2006,12,GE,1.5 SLE,19,2,262.5,wind,2016,5120 279th Ave NE,Wilton,58579,47.1167,-100.7333
54717,FPL Energy Burleigh County Wind LLC,56357,FPL Energy Burleigh County Wind,ND,Burleigh,GE15,OP,Onshore Wind Turbine,WT,IPP Non-CHP,2,31.5,31.5,31.5,12,2005,21,GE,1.5 SLE,19,2,262.5,wind,2016,5120 279th Ave NE,Wilton,58579,47.1167,-100.7333
15399,Avangrid Renewables LLC,56359,Klondike Windpower II,OR,Sherman,PH2,OP,Onshore Wind Turbine,WT,IPP Non-CHP,2,75,75,75,7,2005,50,GE,1.5 SLE,14.5,2,262,wind,2016,98435 Klondike Lane,Wasco,97065,45.571,-120.593
14354,PacifiCorp,56360,Leaning Juniper,OR,Gilliam,1,OP,Onshore Wind Turbine,WT,Electric Utility,1,100.5,100.5,100.5,10,2006,67,GE,1.5 SLE,19,2,262,wind,2016,72459 Rattlesnake Rd.,Arlington,97812,45.652457,-120.209783
15399,Avangrid Renewables LLC,56361,Big Horn Wind Project,WA,Klickitat,1,OP,Onshore Wind Turbine,WT,IPP Non-CHP,2,199,199,199,10,2006,133,GE,1.5 SLE,17,2,262,wind,2016,1 Big Horn Rd,Bickelton,99322,45.8877,-120.2896
15399,Avangrid Renewables LLC,56362,Shiloh I Wind Project,CA,Solano,1,OP,Onshore Wind Turbine,WT,IPP Non-CHP,2,150,150,150,5,2006,100,GE,1.5 SLE,15.3,2,262,wind,2016,6283 Montezuma Hills road,Rio Vista,94571,38.12,-121.85
15399,Avangrid Renewables LLC,56369,Casselman Wind Power Project,PA,Somerset,1,OP,Onshore Wind Turbine,WT,IPP Non-CHP,2,34.5,34.5,34.5,12,2007,23,GE,1.5 SLE,15.1,2,262,wind,2016,2200 Rockdale Road,Garrett,15542,39.85,-79.138
50123,"Leeward Asset Management, LLC",56371,Cedar Creek Wind,CO,Weld,1,OP,Onshore Wind Turbine,WT,IPP Non-CHP,2,300.5,300,300,11,2007,274,Mitsubishi,MWT-1000,16.6,1,226,wind,2016,59550 CR 105,Grover,80729,40.8944,-104.0206
50123,"Leeward Asset Management, LLC",56372,Sweetwater Wind 5,TX,Nolan,SW5,OP,Onshore Wind Turbine,WT,IPP Non-CHP,2,80.5,80.5,80.5,12,2007,35,Siemens,SWT-2.3-82 VS,16.5,1,262.4,wind,2016,7900 FM 608,Roscoe,79545,32.236944,-100.4833
9209,Illinois Rural Electric Coop,56376,Pike County Wind Power,IL,Pike,WTG1,OP,Onshore Wind Turbine,WT,Electric Utility,1,1.7,1.7,1.7,5,2005,1,Vestas,V82-1.65,13.7,2,235,wind,2016,24920 365th Street,Pittsfield,62363,39.6189,-90.8461
49893,Invenergy Services LLC,56377,Judith Gap Wind Energy Center,MT,Wheatland,1,OP,Onshore Wind Turbine,WT,IPP Non-CHP,2,135,135,135,12,2005,90,GE,1.5 SLE,19,2,263,wind,2016,P.O. Box 70,Harlowton,59520,46.5725,-109.7531
794,Apollo Energy Corp,56378,Pakini Nui Wind Farm,HI,Hawaii,1,OP,Onshore Wind Turbine,WT,IPP Non-CHP,2,21,21,21,4,2007,14,GE,1.5 SE,21,1,210,wind,2016,93-1373 South Point Rd.,Naalehu,96772,18.9742,-155.6914
12341,MidAmerican Energy Co,56379,Victory Wind Farm,IA,Carroll,VWF,OP,Onshore Wind Turbine,WT,Electric Utility,1,99,99,99,12,2006,66,GE,1.5 SLE,16.8,3,263,wind,2016,1832 Industrial park Rd.,Westside,51401,42.1169,-95.1292
14063,Oklahoma Gas & Electric Co,56380,Centennial Wind Farm,OK,Harper,WT1,OP,Onshore Wind Turbine,WT,Electric Utility,1,120,120,120,12,2006,80,GE,1.5 SLE,25,2,264,wind,2016,NA,Fort Supply,73848,36.637733,-99.601869
15399,Avangrid Renewables LLC,56383,Northern Iowa Windpower II,IA,Worth,TOI2,OP,Onshore Wind Turbine,WT,IPP Non-CHP,2,80,80,80,1,2008,48,Gamesa,G87-2.0,18,2,255,wind,2016,1145 410th Street,Kensett,50448,43.3608,-93.2978
11479,Madison Gas & Electric Co,56386,Top of Iowa Windfarm III,IA,Worth,TOI3,OP,Onshore Wind Turbine,WT,Electric Utility,1,29.7,3.8,3.8,2,2008,18,Vestas,V82-1.65,19,2,262,wind,2016,570 410th St,Kensett,50448,43.3597,-93.3208
20847,Wisconsin Electric Power Co,56391,Blue Sky Green Field Wind Project,WI,Fond Du Lac,1,OP,Onshore Wind Turbine,WT,Electric Utility,1,145.2,21,61,5,2008,88,Vestas,V82-1.65,19,2,213.2,wind,2016,Highway W and Johnsburg Road,Fond du Lac,54935,43.8794,-88.2708
55696,FPL Energy Oliver County Wind,56392,FPL Energy Oliver Wind I LLC,ND,Oliver,1,OP,Onshore Wind Turbine,WT,IPP Non-CHP,2,50.6,50.6,50.6,12,2006,22,Siemens,SWT-2.3-93,19,2,262.4,wind,2016,1851 33rd Avenue,Center,58530,47.152847,-101.197716
56215,E ON Climate Renewables N America LLC,56394,Forest Creek Wind Farm LLC,TX,Glasscock,1,OP,Onshore Wind Turbine,WT,IPP Non-CHP,2,124.2,124.2,124.2,12,2006,54,Siemens,SWT-2.3-93,18.6,2,262.4,wind,2016,893 McDonald Road North,Big Springs,79720,32.039,-101.22
54759,Mesquite Wind LLC,56395,Mesquite Wind Power LLC,TX,Shackelford,1,OP,Onshore Wind Turbine,WT,IPP Non-CHP,2,200,200,200,11,2007,100,Gamesa,G87-2.0,19,2,255,wind,2016,299 FM 604,Abilene,79601,32.6256,-99.4928
15399,Avangrid Renewables LLC,56399,Lempster Wind LLC,NH,Sullivan,1,OP,Onshore Wind Turbine,WT,IPP Non-CHP,2,24,24,24,12,2008,12,Gamesa,G87-2.0,18,2,255,wind,2016,106 NE Bean Mt Road,Lempster,3605,43.233,-72.1455
54789,"AgriWind Project, LLC",56408,Agriwind,IL,BUREAU,AWND1,OP,Onshore Wind Turbine,WT,IPP Non-CHP,2,8.4,8.4,8.4,7,2007,4,Suzlon,S88-2100,15.9,2,262.4,wind,2016,12332 1100 North Ave,Tiskilwa,61368,41.3017,-89.6236
54790,Stahl Wind Energy LLC,56409,Stahl Wind Energy,MN,Pipestone,1,OP,Onshore Wind Turbine,WT,IPP Non-CHP,2,1.7,1.7,1.7,12,2004,1,Vestas,V82-1.65,18.6,2,240,wind,2016,1183 15th Ave,Pipestone,56164,44.0256,-96.4303
54791,Carstensen Wind LLC,56410,Carstensen Wind,MN,Pipestone,1,OP,Onshore Wind Turbine,WT,IPP Non-CHP,2,1.7,1.7,1.7,12,2004,1,Vestas,V82-1.65,17.4,2,240,wind,2016,204 91st Street,Pipestone,56164,44.0247,-96.4369
54792,Northern Lights Wind LLC,56411,Northern Lights Wind LLC,MN,Pipestone,1,OP,Onshore Wind Turbine,WT,IPP Non-CHP,2,1.7,1.7,1.7,12,2004,1,Vestas,V82-1.65,18.1,2,240,wind,2016,164 121st Street,Pipestone,56164,44.015,-96.4367
54793,Lucky Wind LLC,56412,Lucky Wind,MN,Pipestone,1,OP,Onshore Wind Turbine,WT,IPP Non-CHP,2,1.7,1.7,1.7,12,2004,1,Vestas,V82-1.65,17.6,2,240,wind,2016,188 121st Street,Pipestone,56164,44.0211,-96.4406
54794,Greenback Energy LLC,56413,Greenback Energy,MN,Pipestone,1,OP,Onshore Wind Turbine,WT,IPP Non-CHP,2,1.7,1.7,1.7,12,2004,1,Vestas,V82-1.65,18.4,2,240,wind,2016,1148 15th Ave,Pipestone,56164,44.0208,-96.4331
40580,Southern Minnesota Mun P Agny,56414,Redwood Falls Wind,MN,Redwood,WND1,OP,Onshore Wind Turbine,WT,Electric Utility,1,1.7,1.7,1.7,12,2004,1,Vestas,V82-1.65,19.1,2,237,wind,2016,31298 Knox Ave (CO. Rd 17),Redwood Falls,56383,44.502778,-95.175
40580,Southern Minnesota Mun P Agny,56414,Redwood Falls Wind,MN,Redwood,WND2,OP,Onshore Wind Turbine,WT,Electric Utility,1,1.7,1.7,1.7,1,2005,1,Vestas,V82-1.65,19.1,2,237,wind,2016,31298 Knox Ave (CO. Rd 17),Redwood Falls,56383,44.502778,-95.175
40580,Southern Minnesota Mun P Agny,56415,Fairmont Wind,MN,Martin,WND1,OP,Onshore Wind Turbine,WT,Electric Utility,1,1,0.9,0.9,3,2003,1,NEG-Micon,NM54/950,16.8,2,237,wind,2016,589 Hwy 15,Fairmont,56031,43.575,-94.446667
40580,Southern Minnesota Mun P Agny,56415,Fairmont Wind,MN,Martin,WND2,OP,Onshore Wind Turbine,WT,Electric Utility,1,1,0.9,0.9,3,2003,1,NEG-Micon,NM54/950,16.8,2,237,wind,2016,589 Hwy 15,Fairmont,56031,43.575,-94.446667
40580,Southern Minnesota Mun P Agny,56415,Fairmont Wind,MN,Martin,WND3,OP,Onshore Wind Turbine,WT,Electric Utility,1,1.7,1.7,1.7,12,2004,1,Vestas,V82-1.65,19.1,2,237,wind,2016,589 Hwy 15,Fairmont,56031,43.575,-94.446667
40580,Southern Minnesota Mun P Agny,56415,Fairmont Wind,MN,Martin,WND4,OP,Onshore Wind Turbine,WT,Electric Utility,1,1.7,1.7,1.7,1,2005,1,Vestas,V82-1.65,19.1,2,237,wind,2016,589 Hwy 15,Fairmont,56031,43.575,-94.446667
54800,"Michigan Wind 1, LLC",56416,Michigan Wind 1,MI,Huron,1,OP,Onshore Wind Turbine,WT,IPP Non-CHP,2,69,69,69,12,2008,46,GE,1.5 SLE,15.7,2,262.5,wind,2016,1387 East Atwater Road,Ubly,48475,43.7092,-82.9633
54819,FPL Energy Mower County LLC,56424,Mower County Wind Energy Center,MN,Mower,1,OP,Onshore Wind Turbine,WT,IPP Non-CHP,2,98.9,98.9,98.9,12,2006,43,Siemens,SWT-1.0-54,19,2,262.5,wind,2016,72506 180th Street,Grand Meadow,55936,43.61407,-92.59882
59883,NRG Energy Gas & Wind Holdings Inc,56432,Wildorado Wind LLC,TX,Oldham,1,OP,Onshore Wind Turbine,WT,IPP Non-CHP,2,161,161,161,4,2007,70,Siemens,SWT-2.3-93,19,2,262.4,wind,2016,6798 CO RD 42,Vega,79092,35.291944,-102.303056
11208,Los Angeles Department of Water & Power,56433,Pine Tree Wind Power Project,CA,Kern,1,OP,Onshore Wind Turbine,WT,Electric Utility,1,135,135,135,6,2009,90,GE,1.5 SLE,19,2,218,wind,2016,22500 Jawbone Canyon Rd.,Mojave,93519,35.248006,-118.175356
56592,Idaho Wind Partners 1 LLC,56434,Burley Butte Windpark,ID,Cassia,BBWP,OP,Onshore Wind Turbine,WT,IPP Non-CHP,2,21.3,21.3,21.3,2,2011,13,GE,1.5 XLE,14.9,2,262.4,wind,2016,Section 6 Twp 11S Range 22E,Burley,83318,42.490341,-113.926605
56592,Idaho Wind Partners 1 LLC,56435,Golden Valley Wind Park LLC,ID,Cassia,GVWP,OP,Onshore Wind Turbine,WT,IPP Non-CHP,2,12,12,12,1,2011,8,GE,1.5 XLE,14.1,2,262.4,wind,2016,605 S 600 W,Burley,83318,42.436804,-113.925536
56592,Idaho Wind Partners 1 LLC,56437,Milner Dam Wind Park LLC,ID,Cassia,MDWP,OP,Onshore Wind Turbine,WT,IPP Non-CHP,2,19.5,19.5,19.5,2,2011,13,GE,1.5 XLE,14.4,2,262.4,wind,2016,Section 26 Twp 10S Range 20E,Burley,83318,42.460629,-114.017297
56592,Idaho Wind Partners 1 LLC,56439,Oregon Trail Wind Park,ID,Twin Falls,OTWP,OP,Onshore Wind Turbine,WT,IPP Non-CHP,2,13.5,13.5,13.5,1,2011,9,GE,1.5 XLE,14,2,262.4,wind,2016,289 E 5900 N,Hagerman,83332,42.840556,-114.989722
56592,Idaho Wind Partners 1 LLC,56440,Pilgrim Stage Wind Park,ID,Twin Falls,PSWP,OP,Onshore Wind Turbine,WT,IPP Non-CHP,2,10.5,10.5,10.5,1,2011,7,GE,1.5 XLE,14.9,2,262.4,wind,2016,Section 31 Twp 7 S Range 12 E,Hagerman,83332,42.7975,-114.998611
56592,Idaho Wind Partners 1 LLC,56441,Salmon Falls Wind Park,ID,Twin Falls,SFWP,OP,Onshore Wind Turbine,WT,IPP Non-CHP,2,21,21,21,4,2011,14,GE,1.5 XLE,14.4,2,262.4,wind,2016,Section 30 Twp 08S Range 13E,Hagerman,83332,42.681944,-114.989167
56592,Idaho Wind Partners 1 LLC,56442,Thousand Springs Wind Park,ID,Twin Falls,TSWP,OP,Onshore Wind Turbine,WT,IPP Non-CHP,2,12,12,12,1,2011,8,GE,1.5 XLE,13.8,2,262.4,wind,2016,Section 19 Twp 6 Range 13E,Hagerman,83332,42.870278,-114.967778
56592,Idaho Wind Partners 1 LLC,56443,Tuana Gulch Wind Park,ID,Twin Falls,TGWP,OP,Onshore Wind Turbine,WT,IPP Non-CHP,2,10.5,10.5,10.5,1,2011,7,GE,1.5 XLE,14.1,2,262.4,wind,2016,Section 19 Twp 7 Range 12 E,Hagerman,83332,42.836854,-114.969342
50123,"Leeward Asset Management, LLC",56446,Buena Vista Energy LLC,CA,Contra Costa,1,OP,Onshore Wind Turbine,WT,IPP Non-CHP,2,38,38,38,12,2006,38,Mitsubishi,MWT-1000,13.6,1,197,wind,2016,7601 Byron Hot Springs Rd,Byron,94514,37.805,-121.6672
57170,"EDF Renewable Asset Holdings, Inc.",56447,Hawi  Wind Farm,HI,Hawaii,V-47,OP,Onshore Wind Turbine,WT,IPP Non-CHP,2,10.6,10.6,10.6,5,2006,16,Vestas,V47-660,22.4,1,131.2,wind,2016,Upol 8 Road,Hawi,96719,20.257252,-155.850382
59155,"First Wind O&M, LLC",56448,Mars Hill Wind Farm Project,ME,Aroostook,1,OP,Onshore Wind Turbine,WT,IPP Non-CHP,2,42,42,42,3,2007,28,GE,1.5 SLE,19,2,262.4,wind,2016,34 Tower Road,Mars Hill,4758,46.54422,-67.8111
59155,"First Wind O&M, LLC",56449,Kaheawa Pastures Wind Farm,HI,Maui,1,OP,Onshore Wind Turbine,WT,IPP Non-CHP,2,30,30,30,1,2006,20,GE,1.5 SE,22,1,298,wind,2016,Maalaea,Maalaea,96753,20.81421,-156.551
50123,"Leeward Asset Management, LLC",56450,GSG LLC,IL,Lee,1,OP,Onshore Wind Turbine,WT,IPP Non-CHP,2,80,80,80,6,2007,40,Gamesa,G87-2.0,19,2,256,wind,2016,2612 Shady Oaks Road,West Brooklyn,61378,41.643611,-89.173056
50123,"Leeward Asset Management, LLC",56451,Allegheny Ridge Wind Farm,PA,Cambria,1,OP,Onshore Wind Turbine,WT,IPP Non-CHP,2,80,80,80,6,2007,40,Gamesa,G87-2.0,19,2,256,wind,2016,1501 Gillespie Ave,Portage,15946,40.383889,-78.579444
54870,FPL Energy Red Canyon LLC,56457,Post Wind Farm LP,TX,Borden,1,OP,Onshore Wind Turbine,WT,IPP Non-CHP,2,84,84,84,4,2006,56,GE,1.5 SLE,19,2,262.5,wind,2016,423 Country Road,Fluvanna,79517,32.92544,-101.219397
15399,Avangrid Renewables LLC,56459,MinnDakota Wind LLC,MN,Lincoln,2,OP,Onshore Wind Turbine,WT,IPP Non-CHP,2,150,150,150,1,2008,100,GE,1.5 SLE,16.1,2,262,wind,2016,21006 486th Avenue,Ivanhoe,57026,44.2667,-96.3444
15399,Avangrid Renewables LLC,56460,Twin Buttes Wind Project,CO,Bent,WT1,OP,Onshore Wind Turbine,WT,IPP Non-CHP,2,75,75,75,7,2007,50,GE,1.5 SLE,17.4,2,255,wind,2016,31965 county Road,Lamar,81052,37.6735,-102.8622
14354,PacifiCorp,56466,Marengo Wind Plant,WA,Columbia,1,OP,Onshore Wind Turbine,WT,Electric Utility,1,140.4,140.4,140.4,8,2007,78,Vestas,V80-1.8,25.3,2,213,wind,2016,King Rd and Covello Rd,Dayton,99328,46.3747,-117.7772
14354,PacifiCorp,56466,Marengo Wind Plant,WA,Columbia,2,OP,Onshore Wind Turbine,WT,Electric Utility,1,70.2,70.2,70.2,1,2008,39,Vestas,V80-1.8,25.3,2,213,wind,2016,King Rd and Covello Rd,Dayton,99328,46.3747,-117.7772
15399,Avangrid Renewables LLC,56468,Klondike Windpower III,OR,Sherman,1,OP,Onshore Wind Turbine,WT,IPP Non-CHP,2,221,221,221,11,2007,124,Siemens,SWT-2.3-93,16.5,2,262.4,wind,2016,99436 Klondike Lane,Wasco,97065,45.5836,-120.5042
15399,Avangrid Renewables LLC,56468,Klondike Windpower III,OR,Sherman,2,OP,Onshore Wind Turbine,WT,IPP Non-CHP,2,76.5,76.5,76.5,7,2008,51,Siemens,SWT-2.3-93,16.5,2,262.4,wind,2016,99436 Klondike Lane,Wasco,97065,45.5836,-120.5042
15399,Avangrid Renewables LLC,56470,Locust Ridge,PA,Schuylkill,LRWF,OP,Onshore Wind Turbine,WT,IPP Non-CHP,2,26,26,26,3,2007,13,Gamesa,G87-2.0,15.3,2,255,wind,2016,"270 Brandonville Rd, PO Box134",Mahanoy City,17948,40.855,-76.1292
56215,E ON Climate Renewables N America LLC,56479,Sand Bluff Wind Farm,TX,Glasscock,2,OP,Onshore Wind Turbine,WT,IPP Non-CHP,2,90,90,90,1,2007,45,Gamesa,G87-2.0,18.6,2,255.9,wind,2016,893 N. McDonald Rd,Big Spring,79720,31.991442,-101.302637
54759,Mesquite Wind LLC,56483,Post Oak Wind LLC,TX,Shackelford,1,OP,Onshore Wind Turbine,WT,IPP Non-CHP,2,200,200,200,3,2008,100,Gamesa,G87-2.0,19,2,255,wind,2016,299 FM 604,Abilene,79601,32.5144,-99.6564
19740,AES Wind Generation Inc,56484,Buffalo Gap 2 Wind Farm,TX,Nolan,1,OP,Onshore Wind Turbine,WT,IPP Non-CHP,2,232.5,232.5,232.5,7,2007,155,GE,1.5 S,17,2,201,wind,2016,10718 FM 89,Merkel,79536,32.318221,-100.176986
15248,Portland General Electric Co,56485,Biglow Canyon Wind Farm,OR,Sherman,1,OP,Onshore Wind Turbine,WT,Electric Utility,1,125.4,125.4,125.4,12,2007,76,Vestas,V82-1.65,19,2,260,wind,2016,96900 Herin Lane,Wasco,97065,45.653745,-120.603414
15248,Portland General Electric Co,56485,Biglow Canyon Wind Farm,OR,Sherman,2,OP,Onshore Wind Turbine,WT,Electric Utility,1,163.3,163.3,163.3,9,2009,71,Siemens,SWT-2.3-93,19,2,262.4,wind,2016,96900 Herin Lane,Wasco,97065,45.653745,-120.603414
15248,Portland General Electric Co,56485,Biglow Canyon Wind Farm,OR,Sherman,3,OP,Onshore Wind Turbine,WT,Electric Utility,1,161,161,161,8,2010,70,Siemens,SWT-2.3-93,19,2,262.4,wind,2016,96900 Herin Lane,Wasco,97065,45.653745,-120.603414
55907,White Creek Wind 1 LLC,56487,White Creek Wind Farm,WA,Klickitat,1,OP,Onshore Wind Turbine,WT,IPP Non-CHP,2,204,204,204,11,2007,89,Siemens,SWT-2.3-93,17.6,2,260,wind,2016,1131 Dot Road,Roosevelt,99356,45.815467,-120.341883
55886,Smoky Hills Wind Farm I LLC,56488,Smoky Hills Wind Project Phase I,KS,Lincoln,1,OP,Onshore Wind Turbine,WT,IPP Non-CHP,2,100.8,100.8,100.8,1,2008,56,Vestas,V80-1.8,24,2,328,wind,2016,223 North Highway 14,Lincoln,67455,38.879936,-98.160159
49893,Invenergy Services LLC,56493,Buffalo Mountain Energy Center,TN,Anderson,4,OP,Onshore Wind Turbine,WT,IPP Non-CHP,2,27,27,27,12,2004,15,Vestas,V80-1.8,17,2,255.8,wind,2016,1980 Windrock Rd,Oliver Springs,37840,36.127092,-84.344168
54904,High Prairie Wind Farm II LLC,56494,Prairie Star Wind Farm,MN,Mower,HP2,OP,Onshore Wind Turbine,WT,IPP Non-CHP,2,100.6,100.6,100.6,12,2007,61,Vestas,V82-1.65,16.4,2,265,wind,2016,308 4th Ave NE,Grand Meadow,55936,43.6861,-92.6272
17058,Shell Wind Energy Inc.,56495,NedPower Mount Storm,WV,Grant,MS1,OP,Onshore Wind Turbine,WT,IPP Non-CHP,2,164,164,164,3,2008,82,Gamesa,G80-2.0,18.3,1,255.9,wind,2016,"HC 76, Box 447",Mount Storm,26739,39.2175,-79.2094
17058,Shell Wind Energy Inc.,56495,NedPower Mount Storm,WV,Grant,MS2,OP,Onshore Wind Turbine,WT,IPP Non-CHP,2,100,100,100,12,2008,50,Gamesa,G80-2.0,18.3,1,255.9,wind,2016,"HC 76, Box 447",Mount Storm,26739,39.2175,-79.2094
12341,MidAmerican Energy Co,56501,Pomeroy Wind Farm,IA,Pocahontas,PWF,OP,Onshore Wind Turbine,WT,Electric Utility,1,123,123,123,12,2007,82,GE,1.5 SLE,16.8,3,263,wind,2016,13411 630th St,Fonda,50540,42.5842,-94.7467
12341,MidAmerican Energy Co,56501,Pomeroy Wind Farm,IA,Pocahontas,PWF2,OP,Onshore Wind Turbine,WT,Electric Utility,1,75,75,75,12,2007,50,GE,1.5 SLE,16.8,3,263,wind,2016,13411 630th St,Fonda,50540,42.5842,-94.7467
12341,MidAmerican Energy Co,56501,Pomeroy Wind Farm,IA,Pocahontas,PWF3,OP,Onshore Wind Turbine,WT,Electric Utility,1,58.5,58.5,58.5,12,2008,39,GE,1.5 SLE,16.8,3,263,wind,2016,13411 630th St,Fonda,50540,42.5842,-94.7467
12341,MidAmerican Energy Co,56501,Pomeroy Wind Farm,IA,Pocahontas,PWF4,OP,Onshore Wind Turbine,WT,Electric Utility,1,29.9,29.9,29.9,8,2011,34,Siemens,SWT-2.3-101,16.8,3,262.4,wind,2016,13411 630th St,Fonda,50540,42.5842,-94.7467
49893,Invenergy Services LLC,56506,Scurry County Wind LP,TX,Scurry,SCW,OP,Onshore Wind Turbine,WT,IPP Non-CHP,2,130.5,130.5,130.5,5,2007,87,GE,1.5 SLE,18.6,2,263,wind,2016,6543 E Hwy 180,Snyder,79549,32.7204,-100.9952
55734,"Cow Branch Wind Power, LLC",56536,Cow Branch,MO,Atchison,1,OP,Onshore Wind Turbine,WT,IPP Non-CHP,2,50.4,50.4,50.4,4,2008,24,Suzlon,S88-2100,17,2,262.4,wind,2016,Intersection AA Hwy & Y Hwy,Tarkio,64482,40.4535,-95.4683
55735,"CR Clearing, LLC",56537,Conception,MO,Nodaway,1,OP,Onshore Wind Turbine,WT,IPP Non-CHP,2,50.4,50.4,50.4,4,2008,24,Suzlon,S88-2100,16,2,262.4,wind,2016,Hwy 136,Stanberry,64423,40.2572,-94.6722
55736,Loess Hills Wind Farm LLC,56538,Loess Hills,MO,Atchison,1,OP,Onshore Wind Turbine,WT,IPP Non-CHP,2,5,5,5,2,2008,4,Suzlon,S64-1250,13.2,2,244.4,wind,2016,East of I 29 and Hwy 136,Rock Port,64482,40.4144,-95.54
59883,NRG Energy Gas & Wind Holdings Inc,56543,Eastridge Wind Project,MN,Murray,1,OP,Onshore Wind Turbine,WT,IPP Non-CHP,2,10.4,10.4,10.4,4,2006,8,Suzlon,S64-950,17,3,213,wind,2016,401 Lone Tree Street,Porter,56280,43.9358,-95.9222
59883,NRG Energy Gas & Wind Holdings Inc,56544,Windom Wind Project,MN,Cottonwood,1,OP,Onshore Wind Turbine,WT,IPP Non-CHP,2,15.6,15.6,15.6,3,2006,12,Suzlon,S64-1250,17,2,213,wind,2016,50601 365th Street,Bingham Lake,56118,43.9578,-95.1306
55737,"Wind Capital Holdings, LLC",56555,Bluegrass Ridge,MO,Gentry,1,OP,Onshore Wind Turbine,WT,IPP Non-CHP,2,56.7,56.7,56.7,6,2007,27,Suzlon,S88-2100,16,2,262.4,wind,2016,Hwy 169,King City,64463,40.1006,-94.4869
55838,"Exelon Wind 1, LLC",56557,EXC Wind 1,TX,Hansford,1,OP,Onshore Wind Turbine,WT,IPP Non-CHP,2,10,10,10,2,2006,8,Suzlon,S64-1250,19.1,2,244.4,wind,2016,15195 Hwy 136,Gruver,79040,36.4983,-101.4958
55837,"Exelon Wind 2, LLC",56558,EXC Wind 2,TX,Hansford,JDW2,OP,Onshore Wind Turbine,WT,IPP Non-CHP,2,10,10,10,2,2006,8,Suzlon,S64-1250,19.1,2,244.4,wind,2016,15198 County Rd. 9,Gruver,79040,36.4886,-101.4597
55836,"Exelon Wind 3, LLC",56559,EXC Wind 3,TX,Hansford,JDW3,OP,Onshore Wind Turbine,WT,IPP Non-CHP,2,10,10,10,2,2006,8,Suzlon,S64-1250,19.1,2,244.4,wind,2016,14790 Hwy 207,Spearman,79040,36.4417,-101.3497
55835,"Exelon Wind 4, LLC",56560,EXC Wind 4,TX,Hansford,JDW4,OP,Onshore Wind Turbine,WT,IPP Non-CHP,2,79.8,79.8,79.8,1,2008,38,Suzlon,S88-2100,19.1,2,262.4,wind,2016,Near HWY 136,Gruver,79081,36.4144,-101.3864
55834,"Exelon Wind 5, LLC",56561,EXC Wind 5,TX,Sherman,JDW5,OP,Onshore Wind Turbine,WT,IPP Non-CHP,2,10,10,10,11,2006,8,Suzlon,S64-1250,20,2,244.4,wind,2016,Near HWY 54,Stratford,73949,36.4453,-101.8761
55833,"Exelon Wind 6, LLC",56562,EXC Wind 6,TX,Sherman,JDW6,OP,Onshore Wind Turbine,WT,IPP Non-CHP,2,10,10,10,1,2007,8,Suzlon,S64-1250,20,2,244.4,wind,2016,15090 FM 119,Texhoma,73949,36.4669,-101.8222
55785,FPL Peetz Table Wind Energy,56563,Peetz Table Wind Energy,CO,Logan,GE,OP,Onshore Wind Turbine,WT,IPP Non-CHP,2,199.5,199.5,199.5,9,2007,133,GE,1.5 SLE,19,2,262.5,wind,2016,9500 County Rd. 78,Peetz,80747,40.986,-103.436
2770,Terra-Gen Operating Co LLC,56570,Terra-Gen VG Wind LLC,CA,Kern,WGNS,OP,Onshore Wind Turbine,WT,IPP Non-CHP,2,7.4,7.4,7.4,1,1984,10,Zond,Z-50,22.4,1,180,wind,2016,13000 Jameson Road,Tehachapi,93561,35.1161,-118.3789
54799,FPL Energy Oliver County Wind II LLC,56573,FPL Energy Oliver Wind II LLC,ND,Oliver,2,OP,Onshore Wind Turbine,WT,IPP Non-CHP,2,48,48,48,12,2007,32,GE,1.5 S,19,2,262.5,wind,2016,1851 33rd Ave; SW,Center,58530,47.152847,-101.197716
59155,"First Wind O&M, LLC",56575,Steel Winds Wind Farm,NY,Erie,1,OP,Onshore Wind Turbine,WT,IPP Non-CHP,2,20,20,20,6,2007,8,Clipper,Liberty C96,19,2,262.4,wind,2016,1951 Hamburg Turnpike,Lackawanna,12418,42.8167,-78.8675
55832,Shane's Wind Machine LLC,56577,Shane's Wind Machine,MN,Pipestone,1,OP,Onshore Wind Turbine,WT,IPP Non-CHP,2,1.3,1.3,1.3,7,2006,1,Suzlon,S88-2100,16.8,2,262.4,wind,2016,1631 211th Street,Ruthton,56170,44.1508,-96.1361
56808,Norgard 1,56578,Roadrunner I LLC,MN,Lincoln,1,OP,Onshore Wind Turbine,WT,IPP Non-CHP,2,1.3,1.3,1.3,5,2006,1,Suzlon,S64-1250,16.8,2,244.4,wind,2016,1642 116th Avenue,Lake Benton,56149,44.290556,-96.433333
56808,Norgard 1,56579,Windy Dog I LLC,MN,Lincoln,1,OP,Onshore Wind Turbine,WT,IPP Non-CHP,2,1.3,1.3,1.3,5,2006,1,Suzlon,S64-1250,16.8,2,244.4,wind,2016,1612 116th Ave,Lake Benton,56149,44.2851,-96.4257
56807,Moore 1,56580,Blue Breezes LLC,MN,Faribault,1,OP,Onshore Wind Turbine,WT,IPP Non-CHP,2,1.3,1.3,1.3,5,2006,1,Suzlon,S64-1250,17,2,244.4,wind,2016,11751 357th Ave.,Blue Earth,56013,43.6558,-94.1536
56807,Moore 1,56581,Blue Breezes II LLC,MN,Faribault,1,OP,Onshore Wind Turbine,WT,IPP Non-CHP,2,1.3,1.3,1.3,5,2006,1,Suzlon,S64-1250,17,2,244.4,wind,2016,11751 357th Ave.,Blue Earth,56013,43.6558,-94.1564
56808,Norgard 1,56582,Breezy Bucks II LLC,MN,Lincoln,1,OP,Onshore Wind Turbine,WT,IPP Non-CHP,2,1.3,1.3,1.3,5,2006,1,Suzlon,S64-1250,16.8,2,244.4,wind,2016,1810  166th Ave,Lake Benton,56149,44.3144,-96.3317
56808,Norgard 1,56583,Salty Dog I LLC,MN,Lincoln,1,OP,Onshore Wind Turbine,WT,IPP Non-CHP,2,1.3,1.3,1.3,5,2006,1,Suzlon,S64-1250,16.8,2,244.4,wind,2016,1626 116th Ave,Lake Benton,56149,44.287778,-96.433333
56808,Norgard 1,56584,Salty Dog II LLC,MN,Lincoln,1,OP,Onshore Wind Turbine,WT,IPP Non-CHP,2,1.3,1.3,1.3,5,2006,1,Suzlon,S64-1250,16.8,2,244.4,wind,2016,1692 180th Street,Lake Benton,56149,44.314722,-96.325833
56808,Norgard 1,56585,Wallys Wind Farm LLC,MN,Lincoln,1,OP,Onshore Wind Turbine,WT,IPP Non-CHP,2,1.3,1.3,1.3,5,2006,1,Suzlon,S64-1250,16.8,2,244.4,wind,2016,1192 160th Street,Lake Benton,56149,44.2851,-96.43325
60661,Midwest Power Partners LLC,56586,Sunset Breeze LLC,MN,Nobles,1,OP,Onshore Wind Turbine,WT,IPP Non-CHP,2,1.3,1.3,1.3,5,2006,1,Suzlon,S64-1250,17.9,2,244.4,wind,2016,28431 King Avenue,Rushmore,56168,43.5811,-95.78
60661,Midwest Power Partners LLC,56587,Minnesota Breeze LLC,MN,Nobles,1,OP,Onshore Wind Turbine,WT,IPP Non-CHP,2,1.3,1.3,1.3,5,2006,1,Suzlon,S64-1250,17.9,2,244.4,wind,2016,28431 King Avenue,Rushmore,56168,43.5833,-95.7781
60661,Midwest Power Partners LLC,56588,G Flow Wind LLC,MN,Nobles,1,OP,Onshore Wind Turbine,WT,IPP Non-CHP,2,1.3,1.3,1.3,5,2006,1,Suzlon,S64-1250,17.9,2,244.4,wind,2016,28431 King Avenue,Rushmore,56168,43.586111,-95.776111
60661,Midwest Power Partners LLC,56589,Wolf Wind Enterprises LLC,MN,Nobles,1,OP,Onshore Wind Turbine,WT,IPP Non-CHP,2,1.3,1.3,1.3,5,2006,1,Suzlon,S64-1250,17.9,2,244.4,wind,2016,28431 King Avenue,Rushmore,56168,43.581111,-95.775833
60661,Midwest Power Partners LLC,56590,Green Acres Breeze LLC,MN,Nobles,1,OP,Onshore Wind Turbine,WT,IPP Non-CHP,2,1.3,1.3,1.3,5,2006,1,Suzlon,S64-1250,17.9,2,244.4,wind,2016,28431 King Avenue,Rushmore,56168,43.586111,-95.780278
56568,United Materials of Great Falls Inc,56591,Horseshoe Bend Wind Park,MT,Cascade,HBWP,OP,Onshore Wind Turbine,WT,IPP Non-CHP,2,9,9,9,2,2006,6,GE,1.5 SLE,19,2,262.5,wind,2016,316 McIver Road,Great Falls,59404,47.4983,-111.4392
56215,E ON Climate Renewables N America LLC,56592,Champion Wind Farm LLC,TX,Nolan,CH1,OP,Onshore Wind Turbine,WT,IPP Non-CHP,2,126.5,126.5,126.5,2,2008,55,Siemens,SWT-2.3-93,18.6,2,262.4,wind,2016,1100 County Rd. 140,Roscoe,79545,32.3983,-100.6481
56215,E ON Climate Renewables N America LLC,56593,Roscoe Wind Farm LLC,TX,Nolan,RO1,OP,Onshore Wind Turbine,WT,IPP Non-CHP,2,209,209,209,2,2008,209,Mitsubishi,MWT-1000A,18.3,2,226.4,wind,2016,5722 County Rd. 466,Roscoe,79545,32.4694,-100.6664
56215,E ON Climate Renewables N America LLC,56594,Munnsville Wind Farm LLC,NY,Madison,MU1,OP,Onshore Wind Turbine,WT,IPP Non-CHP,2,34.5,34.5,34.5,10,2007,23,GE,1.5 SLE,15.9,2,262.4,wind,2016,2244 Elm Street,Madison,13310,42.9086,-75.5697
56808,Norgard 1,56595,Breezy Bucks I LLC,MN,Lincoln,1,OP,Onshore Wind Turbine,WT,IPP Non-CHP,2,1.3,1.3,1.3,5,2006,1,Suzlon,S64-1250,16.8,2,244.4,wind,2016,1842 166th Ave.,Lake Benton,56149,44.3197,-96.3317
55847,Snyder Wind Farm LLC,56602,Snyder Wind Farm,TX,Scurry,SNY1,OP,Onshore Wind Turbine,WT,IPP Non-CHP,2,63,63,63,12,2007,21,Vestas,V90-3.0,24,2,328,wind,2016,County Rd 1121,Synder,79549,32.739294,-100.738949
55799,FPL Energy Langdon Wind LLC,56605,Langdon Wind  LLC,ND,Cavalier,GE15,OP,Onshore Wind Turbine,WT,IPP Non-CHP,2,118.5,118.5,118.5,12,2007,106,GE,1.5 SLE,19,2,262.5,wind,2016,10810 Hwy LLC,Langdon,58249,48.63,-98.315
1307,Basin Electric Power Coop,56607,Prairie Winds ND1,ND,Ward,ND1,OP,Onshore Wind Turbine,WT,Electric Utility,1,115.5,115.5,115.5,12,2009,77,GE,1.5 SLE,22.4,2,262.5,wind,2016,Hwy 281,Minot,58701,47.933621,-101.269189
1307,Basin Electric Power Coop,56608,Prairie Winds SD1,SD,Jerauld,SD1,OP,Onshore Wind Turbine,WT,Electric Utility,1,150,150,150,2,2011,100,GE,1.5 SLE,22.4,2,262.5,wind,2016,Hwy 83,Crow Lake,57382,43.886389,-98.7875
1307,Basin Electric Power Coop,56608,Prairie Winds SD1,SD,Jerauld,SD2,OP,Onshore Wind Turbine,WT,Electric Utility,1,10.5,10.5,10.5,2,2011,7,GE,1.5 SLE,22.4,2,262.5,wind,2016,Hwy 83,Crow Lake,57382,43.886389,-98.7875
1307,Basin Electric Power Coop,56608,Prairie Winds SD1,SD,Jerauld,SD3,OP,Onshore Wind Turbine,WT,Electric Utility,1,1.5,1.5,1.5,2,2011,1,GE,1.5 SLE,22.4,2,262.5,wind,2016,Hwy 83,Crow Lake,57382,43.886389,-98.7875
55862,Logan Wind Energy LLC,56613,Logan Wind Energy,CO,Logan,1,OP,Onshore Wind Turbine,WT,IPP Non-CHP,2,201,201,201,10,2007,134,GE,1.5 SLE,19,2,262.5,wind,2016,9500 County Road 78,Peetz,80747,40.941,-103.259
55866,Old Trail Wind Farm LLC,56614,Old Trail Wind Farm,IL,McLean,2,OP,Onshore Wind Turbine,WT,IPP Non-CHP,2,198,198,198,12,2007,120,Vestas,V82-1.65,19,2,262,wind,2016,13682N 2900 East Road,Ellsworth,61737,40.4792,-88.7989
57170,"EDF Renewable Asset Holdings, Inc.",56617,Fenton Wind Farm,MN,Murray,1,OP,Onshore Wind Turbine,WT,IPP Non-CHP,2,205.5,205.5,205.5,9,2007,137,GE,1.5 SLE,19,2,262.4,wind,2016,729 21 St. Street,Chandler,56122,43.852778,-96.018333
55868,Noble Wind Operations LLC,56618,Noble Clinton Windpark LLC,NY,Clinton,1,OP,Onshore Wind Turbine,WT,IPP Non-CHP,2,100.5,100.5,100.5,5,2008,67,GE,1.5 SLE,19,2,262,wind,2016,386 Ryan Road,Churubusco,12923,44.8914,-74.0061
55868,Noble Wind Operations LLC,56619,Noble Ellenburg Windpark LLC,NY,Clinton,1,OP,Onshore Wind Turbine,WT,IPP Non-CHP,2,81,81,81,5,2008,54,GE,1.5 SLE,19,2,262,wind,2016,386 Ryan Road,Churubusco,12923,44.8914,-74.0061
55868,Noble Wind Operations LLC,56620,Noble Bliss Windpark LLC,NY,Wyoming,1,OP,Onshore Wind Turbine,WT,IPP Non-CHP,2,100.5,100.5,100.5,5,2008,67,GE,1.5 SLE,19,2,262,wind,2016,7740 Cadwell Road,Bliss,14024,42.5367,-78.3047
59883,NRG Energy Gas & Wind Holdings Inc,56621,Sleeping Bear LLC,OK,Harper,1,OP,Onshore Wind Turbine,WT,IPP Non-CHP,2,94.5,94.5,94.5,10,2007,45,Suzlon,S88-2100,19,2,262.4,wind,2016,Route 2 Box 152,Woodward,73801,36.640278,-99.500556
15399,Avangrid Renewables LLC,56622,Providence Heights Wind LLC,IL,Bureau,1,OP,Onshore Wind Turbine,WT,IPP Non-CHP,2,72,72,72,8,2008,36,Gamesa,G87-2.0,17,2,255,wind,2016,8547 Wyanet Walnut Road,Tiskilwa,61368,41.2294,-89.5572
55880,Telocaset Wind Power Partners,56623,Elkhorn Valley Wind Farm,OR,Union,EH1,OP,Onshore Wind Turbine,WT,IPP Non-CHP,2,100.7,100.7,100.7,12,2007,61,Vestas,V82-1.65,17,2,240,wind,2016,53777 OR Highway 237,Union,97883,45.085221,-117.816273
57158,Ewington Wind Project,56624,BC Energy LLC,MN,Jackson,1,OP,Onshore Wind Turbine,WT,IPP Non-CHP,2,4,4,4,1,2008,2,Suzlon,S88-2100,17.8,2,262.4,wind,2016,1800 South Shore Drive,Worthington,56187,43.6183,-95.4253
57158,Ewington Wind Project,56625,KC Energy LLC,MN,Jackson,1,OP,Onshore Wind Turbine,WT,IPP Non-CHP,2,4,4,4,1,2008,2,Suzlon,S88-2100,17.8,2,262.4,wind,2016,1800 South Shore Drive,Worthington,56187,43.6292,-95.4169
57158,Ewington Wind Project,56626,K&D Energy LLC,MN,Jackson,1,OP,Onshore Wind Turbine,WT,IPP Non-CHP,2,4,4,4,1,2008,2,Suzlon,S88-2100,17.8,2,262.4,wind,2016,32804 780th Street,Worthington,56187,43.6181,-95.4172
57158,Ewington Wind Project,56627,KSS Turbines LLC,MN,Jackson,1,OP,Onshore Wind Turbine,WT,IPP Non-CHP,2,4,4,4,1,2008,2,Suzlon,S88-2100,17.8,2,262.4,wind,2016,38110 908th Street,Worthington,56187,43.6247,-95.4314
56805,Exelon Wind LLC,56628,Prairie Wind Power LLC,MN,Jackson,1,OP,Onshore Wind Turbine,WT,IPP Non-CHP,2,4,4,4,1,2008,2,Suzlon,S88-2100,17.8,2,262.4,wind,2016,32804 780th Street,Worthington,56187,43.5958,-95.3833
12647,"ALLETE, Inc.",56630,Taconite Ridge 1 Wind Energy Center,MN,St Louis,1,OP,Onshore Wind Turbine,WT,Electric Utility,1,25,25,25,5,2008,10,Clipper,Liberty C96,20,2,262.4,wind,2016,Hwy 53 & St Louis Cty Hwy 102,Mountain Iron,55768,47.5747,-92.5917
59155,"First Wind O&M, LLC",56633,Dutch Hill Wind Project,NY,Steuben,1,OP,Onshore Wind Turbine,WT,IPP Non-CHP,2,37.5,37.5,37.5,1,2009,15,Clipper,Liberty C96,19,2,262.4,wind,2016,11219 Dutch Hill Road,Cohocton,14826,42.5456,-77.4967
59155,"First Wind O&M, LLC",56634,Cohocton Wind Project,NY,Steuben,1,OP,Onshore Wind Turbine,WT,IPP Non-CHP,2,87.5,87.5,87.5,1,2009,35,Clipper,Liberty C96,19,2,262.4,wind,2016,Brown Road,Cohocton,14826,42.45,-77.52
55873,"Harvest Windfarm, LLC",56635,Harvest,MI,Huron,1,OP,Onshore Wind Turbine,WT,IPP Non-CHP,2,52.8,52.8,52.8,1,2008,32,Vestas,V82-1.65,15.6,2,262.4,wind,2016,250N Maxwell Road,Elkton,48731,43.83,-83.2064
55891,"Hot Springs Windfarm, LLC",56636,Mountain Home,ID,Elmore,1,OP,Onshore Wind Turbine,WT,IPP Non-CHP,2,21,21,21,5,2008,10,Suzlon,S88-2100,14.7,2,262.4,wind,2016,18645 Old Oregon Trail Road,Mountain Home,83623,43.0272,-115.4656
55890,Bennett Creek Windfarm LLC,56637,Bennett Creek Windfarm LLC,ID,Elmore,1,OP,Onshore Wind Turbine,WT,IPP Non-CHP,2,21,21,21,7,2008,10,Suzlon,S88-2100,14.7,2,262.4,wind,2016,9505 SE Donetta Drive,Glenns Ferry,83623,43.0536,-115.4803
19740,AES Wind Generation Inc,56638,Buffalo Gap 3 Wind Farm,TX,Nolan,GEN1,OP,Onshore Wind Turbine,WT,IPP Non-CHP,2,170.2,170.2,170.2,8,2008,74,Siemens,SWT-1.3-62,17,1,262,wind,2016,4220-A FM 126,Nolan,79537,32.2878,-100.1
55931,Orion Energy Group LLC,56640,Camp Grove Wind Farm,IL,Stark,1,OP,Onshore Wind Turbine,WT,IPP Non-CHP,2,150,150,150,12,2007,100,GE,1.5 SLE,20,2,262,wind,2016,"RR2, Box 55B",Wyoming,61491,41.090583,-89.639811
49893,Invenergy Services LLC,56644,Stanton Wind Energy LLC,TX,Martin,1,OP,Onshore Wind Turbine,WT,IPP Non-CHP,2,120,120,120,2,2008,80,GE,1.5 SLE,17.4,2,263,wind,2016,2646 State Highway 137,Lenorah,79749,32.2353,-101.8367
55901,Osceola Windpower LLC,56645,Osceola Windpower LLC,IA,Osceola,CL25,OP,Onshore Wind Turbine,WT,IPP Non-CHP,2,100,100,100,7,2008,40,Clipper,Liberty C96,19,2,262.4,wind,2016,6952 Hwy 9,Harris,51345,43.4303,-95.4167
5906,EDF Renewable Services Inc,56646,Chandler Hills Wind Farm,MN,Murray,1,OP,Onshore Wind Turbine,WT,IPP Non-CHP,2,2,2,2,1,1999,3,Vestas,V47-660,22.4,2,213.3,wind,2016,575 41st Street,Chandler,56122,43.917,-95.954
56484,Butler Ridge Wind Energy Center,56647,Butler Ridge,WI,Dodge,1,OP,Onshore Wind Turbine,WT,IPP Non-CHP,2,54,54,54,2,2009,36,GE,1.5 XLE,16.8,3,262.5,wind,2016,W1724 ILLINOIS ROAD,Mayville,53050,43.400278,-88.481111
58353,NextEra Energy Majestic Wind,56648,Majestic 1 Wind Farm,TX,Carson,1,OP,Onshore Wind Turbine,WT,IPP Non-CHP,2,79.5,79.5,79.5,1,2009,53,GE,1.5 SLE,19,2,262.5,wind,2016,580 FM 1342,Panhandle,79068,35.3919,-101.53
55397,NRG Energy Inc,56649,South Trent Wind Farm,TX,Nolan,1,OP,Onshore Wind Turbine,WT,IPP Non-CHP,2,101.2,101.2,101.2,1,2009,44,Siemens,SWT-2.3-93,20,2,240,wind,2016,1101 CR 190,Sweetwater,79556,32.4081,-100.1286
59102,Wessington Wind,56650,Wessington Springs,SD,Jerauld,1,OP,Onshore Wind Turbine,WT,IPP Non-CHP,2,51,51,51,2,2009,34,GE,1.5 SLE,19,2,262.5,wind,2016,230th Street & 380th Avenue,Wessington Springs,57382,44.0025,-98.590833
56385,Duke Energy DEGS North Allegheny,56651,North Allegheny Windpower Project,PA,Blair,1,OP,Onshore Wind Turbine,WT,IPP Non-CHP,2,70,70,70,9,2009,35,Gamesa,G87-2.0,14.9,2,272,wind,2016,St. Hwy 53 & US Hwy 22,Lilly,15938,40.4381,-78.5436
56545,Pattern Operators LP,56654,Hatchet Ridge Wind Project,CA,Shasta,1,OP,Onshore Wind Turbine,WT,IPP Non-CHP,2,101.2,101.2,101.2,12,2010,44,Siemens,SWT-2.3-93,19,2,262.4,wind,2016,19400 Bunch Grass Lookout Rd,Burney,96013,40.8981,-121.8036
56951,"Michigan Wind 2, LLC",56659,Michigan Wind 2,MI,Sanilac,1,OP,Onshore Wind Turbine,WT,IPP Non-CHP,2,90,90,90,12,2011,50,Vestas,V100-1.8,16.3,3,311.7,wind,2016,2690 Leppek Road,Minden City,48475,43.663056,-82.746944
56545,Pattern Operators LP,56661,Pattern Gulf Wind,TX,Kenedy,1,OP,Onshore Wind Turbine,WT,IPP Non-CHP,2,283.2,283.2,283.2,12,2008,118,Mitsubishi,MWT-95/2.4,19,2,262.4,wind,2016,803 Gulf Wind Road,Armstrong,78338,27.0011,-97.5994
55918,Acciona Wind Energy USA LLC,56665,Dempsey Ridge Wind Farm,OK,Roger Mills,DR,OP,Onshore Wind Turbine,WT,IPP Non-CHP,2,132,132,132,5,2012,66,Gamesa,G90-2.0,24.6,2,255.9,wind,2016,10302 N 2890 Rd,Cheyenne,73628,35.529778,-99.814456
14354,PacifiCorp,56666,Goodnoe Hills,WA,Klickitat,1,OP,Onshore Wind Turbine,WT,Electric Utility,1,94,94,94,6,2008,47,REpower,MM92,19,2,262,wind,2016,1332 Hoctor Road,Goldendale,98620,45.781825,-120.521151
55918,Acciona Wind Energy USA LLC,56669,Tatanka Wind Power LLC,ND,Dickey,TW1,OP,Onshore Wind Turbine,WT,IPP Non-CHP,2,180,180,180,1,2008,120,Acciona,AW77/1500,18.8,2,262.4,wind,2016,10002 - 359th Avenue SE,Ashley,58413,45.959325,-98.946325
55918,Acciona Wind Energy USA LLC,56670,Velva Windfarm LLC,ND,McHenry,VW1,OP,Onshore Wind Turbine,WT,IPP Non-CHP,2,11.9,11.9,11.9,12,2005,18,Vestas,V47-660,19,2,215,wind,2016,"4626 Highway 41, POB 540",Velva,58790,48.083625,-100.9215
55922,Whirlwind Energy LLC,56673,Whirlwind Energy Center,TX,Floyd,WEC,OP,Onshore Wind Turbine,WT,IPP Non-CHP,2,59.8,57,57,12,2007,26,Siemens,SWT-2.3-93,20.5,2,262.4,wind,2016,1683 County Rd 271,Floydada,79235,34.105,-101.0986
12341,MidAmerican Energy Co,56677,Charles City Wind Farm,IA,Floyd,CCWF,OP,Onshore Wind Turbine,WT,Electric Utility,1,75,75,75,4,2008,50,GE,1.5 SLE,16.8,3,263,wind,2016,1005 5th St.,Charles City,50616,43.0003,-92.62
55931,Orion Energy Group LLC,56679,Benton County Wind Farm,IN,Benton,1,OP,Onshore Wind Turbine,WT,IPP Non-CHP,2,130.5,130.5,130.5,5,2008,87,GE,1.5 SLE,20,2,262,wind,2016,8557W. 600N,Earl Park,47942,40.695,-87.4886
59883,NRG Energy Gas & Wind Holdings Inc,56699,Forward Windpower LLC,PA,Somerset,1,OP,Onshore Wind Turbine,WT,IPP Non-CHP,2,29.4,29.4,29.4,4,2008,14,Suzlon,S88-2100,19,2,262.4,wind,2016,3202 Ridge Road,Berlin,15501,40.0853,-78.8633
59883,NRG Energy Gas & Wind Holdings Inc,56700,Lookout Windpower LLC,PA,Somerset,1,OP,Onshore Wind Turbine,WT,IPP Non-CHP,2,37.8,37.8,37.8,10,2008,18,Suzlon,S88-2100,19,2,262.4,wind,2016,115 Townhill Road,Berlin,15530,39.8794,-78.9183
